[
   {
      "id":"yrUDeng1LrDvgyyjI5GiHA",
      "name":"Pho Quynh",
      "type":"Vietnamese",
      "rating":4.5,
      "lat":35.211296081543,
      "long":-80.7613372802734,
      "price":"$$",
      "address":"4900 Central Ave",
      "city":"Charlotte",
      "zip":28205
   },
   {
      "id":"PqcOSnCsJTT9Yd2xWKIMWw",
      "name":"La Shish Kabob",
      "type":"Middle Eastern",
      "rating":4.5,
      "lat":35.2032998,
      "long":-80.7604348,
      "price":"$",
      "address":"3117-A N Sharon Amity",
      "city":"Charlotte",
      "zip":28205
   },
   {
      "id":"LdhprCGxa0inFo5P812EIg",
      "name":"Loft & Cellar",
      "type":"Cocktail Bars",
      "rating":3.5,
      "lat":35.2282036722545,
      "long":-80.8464987203479,
      "price":"$$",
      "address":"305 W 4th St",
      "city":"Charlotte",
      "zip":28202
   },
   {
      "id":"VH3WA7a-OVzFj2K_SP4BIw",
      "name":"The King's Kitchen",
      "type":"American (Traditional)",
      "rating":4,
      "lat":35.2280098136565,
      "long":-80.8442559630758,
      "price":"$$",
      "address":"129 W Trade St",
      "city":"Charlotte",
      "zip":28202
   },
   {
      "id":"trAd97ig2agtkZl2cimOMQ",
      "name":"Something Classic Cafe",
      "type":"American (New)",
      "rating":4,
      "lat":35.22822,
      "long":-80.84099,
      "price":"$",
      "address":"220 N Tryon St",
      "city":"Charlotte",
      "zip":28263
   },
   {
      "id":"QFqtVX-lyZQgVHQrG-dhlg",
      "name":"Diamond Restaurant",
      "type":"Southern",
      "rating":3.5,
      "lat":35.21909,
      "long":-80.81317,
      "price":"$",
      "address":"1901 Commonwealth Ave",
      "city":"Charlotte",
      "zip":28205
   },
   {
      "id":"l9tFVg7r7QXuLnCywMQl7Q",
      "name":"The Daily Tavern",
      "type":"American (New)",
      "rating":4.5,
      "lat":35.2294337656203,
      "long":-80.8419475618761,
      "price":"$$",
      "address":"214 N Church St",
      "city":"Charlotte",
      "zip":28202
   },
   {
      "id":"Cbr_THdFrhePgJoqQ9X6gQ",
      "name":"Pho Hoa Noodle Soup",
      "type":"Vietnamese",
      "rating":4.5,
      "lat":35.217429,
      "long":-80.794365,
      "price":"$",
      "address":"3000 Central Ave",
      "city":"Charlotte",
      "zip":28205
   },
   {
      "id":"SHFlELFcEcAOJv_fTAKChQ",
      "name":"Dandelion Market",
      "type":"Bars",
      "rating":4,
      "lat":35.2286689,
      "long":-80.84241,
      "price":"$$",
      "address":"118 W 5th St",
      "city":"Charlotte",
      "zip":28202
   },
   {
      "id":"K3iw26MkmSBPAM7BzHkIYQ",
      "name":"Yama Asian Fusion",
      "type":"Japanese",
      "rating":4,
      "lat":35.157295,
      "long":-80.824004,
      "price":"$$",
      "address":"720 Governor Morrison St",
      "city":"Charlotte",
      "zip":28211
   },
   {
      "id":"bgvm73MMjC2f5qo_RgXOXg",
      "name":"Halcyon",
      "type":"Cocktail Bars",
      "rating":4,
      "lat":35.224421,
      "long":-80.848247,
      "price":"$$$",
      "address":"500 S Tryon St",
      "city":"Charlotte",
      "zip":28202
   },
   {
      "id":"QvxBnMcBPP1z_NAIYCqqdA",
      "name":"Haberdish",
      "type":"Southern",
      "rating":4.5,
      "lat":35.246509552002,
      "long":-80.8061065673828,
      "price":"$$",
      "address":"3106 N Davidson St",
      "city":"Charlotte",
      "zip":28205
   },
   {
      "id":"2um9bzTSvD3f2tkdBoA38g",
      "name":"Kid Cashew",
      "type":"Mediterranean",
      "rating":4,
      "lat":35.1991851,
      "long":-80.8414488,
      "price":"$$",
      "address":"1608 East Blvd",
      "city":"Charlotte",
      "zip":28203
   },
   {
      "id":"Ch7NAhB_MWSDwcNbcptEKg",
      "name":"Mimosa Grill",
      "type":"Southern",
      "rating":4,
      "lat":35.224472,
      "long":-80.845472,
      "price":"$$",
      "address":"327 S Tryon St",
      "city":"Charlotte",
      "zip":28202
   },
   {
      "id":"B1imfnKRvcotaYacPGUrLQ",
      "name":"Carpe Diem Restaurant & Caterers",
      "type":"American (New)",
      "rating":4,
      "lat":35.21413,
      "long":-80.82649,
      "price":"$$$",
      "address":"1535 Elizabeth Ave",
      "city":"Charlotte",
      "zip":28204
   },
   {
      "id":"8xTuXU5uZ85WF-ZGqDNv_w",
      "name":"Leroy Fox South End",
      "type":"Southern",
      "rating":4,
      "lat":35.21416,
      "long":-80.85804,
      "price":"$$",
      "address":"1616 Camden Rd",
      "city":"Charlotte",
      "zip":28203
   },
   {
      "id":"WbJ1LRQdOuYYlRLyTkuuxw",
      "name":"Tupelo Honey",
      "type":"Southern",
      "rating":4,
      "lat":35.2111775622096,
      "long":-80.8586042199391,
      "price":"$$",
      "address":"1820 South Blvd",
      "city":"Charlotte",
      "zip":28203
   },
   {
      "id":"Z072pEHdos2Gjj3nMdR6uA",
      "name":"Luce Restaurant & Bar",
      "type":"Italian",
      "rating":4,
      "lat":35.22777,
      "long":-80.84071,
      "price":"$$$",
      "address":"214 N Tryon St",
      "city":"Charlotte",
      "zip":28202
   },
   {
      "id":"sJpl9ufYT87UWhtW-5UkmQ",
      "name":"Fitzgerald's",
      "type":"Irish",
      "rating":3.5,
      "lat":35.2268736,
      "long":-80.8407635,
      "price":"$$",
      "address":"201 E 5th St",
      "city":"Charlotte",
      "zip":28202
   },
   {
      "id":"KbLI0QELlAwbfDUVwo43DQ",
      "name":"Cajun Yard Dog",
      "type":"Cajun/Creole",
      "rating":4,
      "lat":35.0971237982375,
      "long":-80.7805609703064,
      "price":"$$",
      "address":"8036 Providence Rd",
      "city":"Charlotte",
      "zip":28277
   },
   {
      "id":"QHe9ZMcryK0tcJu1Eyylsw",
      "name":"JP Charlotte at Westin",
      "type":"Diners",
      "rating":3.5,
      "lat":35.2215950971688,
      "long":-80.8474606275558,
      "price":"$$",
      "address":"601 S College St",
      "city":"Charlotte",
      "zip":28202
   },
   {
      "id":"Yc5_nA9NqqxOp8WCugF-Ng",
      "name":"500 Degrees Pizzeria",
      "type":"Pizza",
      "rating":4,
      "lat":35.15357,
      "long":-80.87615,
      "price":"$",
      "address":"6037 South Blvd",
      "city":"Charlotte",
      "zip":28217
   },
   {
      "id":"U66Hketxx9udNd3dMmfPQA",
      "name":"Zoewee's",
      "type":"African",
      "rating":4,
      "lat":35.25672,
      "long":-80.79606,
      "price":"$$",
      "address":"4112 N Tryon St",
      "city":"Charlotte",
      "zip":28206
   },
   {
      "id":"vOdiLz0dTiyHmkbv61HYGQ",
      "name":"Ty's Wings & Tings",
      "type":"Chicken Wings",
      "rating":4.5,
      "lat":35.23527,
      "long":-80.73645,
      "price":"$$",
      "address":"5708 N Sharon Amity Rd",
      "city":"Charlotte",
      "zip":28215
   },
   {
      "id":"D2ojX9bvE0_-aIj9BhdZZA",
      "name":"300 East",
      "type":"American (New)",
      "rating":4,
      "lat":35.210281,
      "long":-80.856636,
      "price":"$$",
      "address":"300 East Blvd",
      "city":"Charlotte",
      "zip":28203
   },
   {
      "id":"bcTwvbD5wfMSgSO-YczLYw",
      "name":"The Workman's Friend",
      "type":"Irish Pub",
      "rating":4.5,
      "lat":35.220588,
      "long":-80.812271,
      "price":"$$",
      "address":"1531 Central Ave",
      "city":"Charlotte",
      "zip":28205
   },
   {
      "id":"NVJ1rVXyThay6Om-Q2LKJA",
      "name":"Cedar Land",
      "type":"Lebanese",
      "rating":4,
      "lat":35.211861,
      "long":-80.761811,
      "price":"$",
      "address":"4832 Central Ave",
      "city":"Charlotte",
      "zip":28205
   },
   {
      "id":"MfmBd9C7tUfOkGu2eJpK2w",
      "name":"Sunflower Family Restaurant",
      "type":"Diners",
      "rating":4.5,
      "lat":35.29321,
      "long":-80.83786,
      "price":"$",
      "address":"5400 Statesville Rd",
      "city":"Charlotte",
      "zip":28269
   },
   {
      "id":"g-ftCJsLjDZgYzrjUf7gng",
      "name":"Hunan Express Chinese Restaurant",
      "type":"Chinese",
      "rating":3,
      "lat":35.19191,
      "long":-80.79713,
      "price":"$",
      "address":"901 N Wendover Rd",
      "city":"Charlotte",
      "zip":28211
   },
   {
      "id":"trodK1jXLGIn5qjJCooIpQ",
      "name":"Rooster's at Southpark",
      "type":"Southern",
      "rating":4,
      "lat":35.15387,
      "long":-80.82777,
      "price":"$$",
      "address":"6601 Morrison Blvd",
      "city":"Charlotte",
      "zip":28211
   },
   {
      "id":"bcTeQtSdHW5pyLjXz05QEg",
      "name":"Fran's Filling Station",
      "type":"American (New)",
      "rating":3.5,
      "lat":35.1979022,
      "long":-80.8519628,
      "price":"$$",
      "address":"2410 Park Rd",
      "city":"Charlotte",
      "zip":28203
   },
   {
      "id":"S9QkaFZ-64t8KpWvC5m4lA",
      "name":"Barreled At The Lift",
      "type":"Hookah Bars",
      "rating":4,
      "lat":35.1720913,
      "long":-80.8492887,
      "price":"$$",
      "address":"1600 E Woodlawn Rd",
      "city":"Charlotte",
      "zip":28209
   },
   {
      "id":"kXoCEwQ1Qr9Ft6uObAvCBQ",
      "name":"Pollo Campero",
      "type":"Latin American",
      "rating":4,
      "lat":35.15191,
      "long":-80.87684,
      "price":"$",
      "address":"6124 South Blvd",
      "city":"Charlotte",
      "zip":28217
   },
   {
      "id":"CAmPPSKoFCd8zo2bxRxRkA",
      "name":"Dino's Family Restaurant",
      "type":"Breakfast & Brunch",
      "rating":4,
      "lat":35.25471,
      "long":-80.79371,
      "price":"$",
      "address":"350 E Sugar Creek Rd",
      "city":"Charlotte",
      "zip":28213
   },
   {
      "id":"x6n14NifL1K1-kimB83GVA",
      "name":"Seoul Poke Bowl",
      "type":"Poke",
      "rating":4.5,
      "lat":35.19241,
      "long":-80.87323,
      "price":"$$",
      "address":"3609 South Blvd",
      "city":"Charlotte",
      "zip":28209
   },
   {
      "id":"vqG1Z2XpS_PryPsfY0CSng",
      "name":"The Capital Grille",
      "type":"Steakhouses",
      "rating":4.5,
      "lat":35.2283137726241,
      "long":-80.8419989013275,
      "price":"$$$",
      "address":"201 N Tryon St",
      "city":"Charlotte",
      "zip":28202
   },
   {
      "id":"R2gNwPARX31w68wjhuJ0zw",
      "name":"Hickory Tavern",
      "type":"Sports Bars",
      "rating":3.5,
      "lat":35.212829,
      "long":-80.835897,
      "price":"$$",
      "address":"1100 Metropolitan Ave",
      "city":"Charlotte",
      "zip":28204
   },
   {
      "id":"01fuY2NNscttoTxOYbuZXw",
      "name":"Pinky's Westside Grill",
      "type":"Burgers",
      "rating":4,
      "lat":35.22912,
      "long":-80.86738,
      "price":"$",
      "address":"1600 W Morehead St",
      "city":"Charlotte",
      "zip":28208
   },
   {
      "id":"bXbCGFk3ZjLcTdQQB-xPyQ",
      "name":"Luciano's Ristorante Italiano",
      "type":"Italian",
      "rating":4,
      "lat":35.210707,
      "long":-80.859637,
      "price":"$$",
      "address":"1910 South Blvd",
      "city":"Charlotte",
      "zip":28203
   },
   {
      "id":"JIvZVRb4nsuXpCU75SEkFw",
      "name":"Kopper Kettle Restaurant",
      "type":"American (Traditional)",
      "rating":4.5,
      "lat":35.1142539978027,
      "long":-80.9128646850586,
      "price":"$",
      "address":"11000 Nations Ford Rd",
      "city":"Pineville",
      "zip":28134
   },
   {
      "id":"o0Y5O_D8RQCx0NEwqPjASQ",
      "name":"Evoke",
      "type":"Wine Bars",
      "rating":3.5,
      "lat":35.21686,
      "long":-80.83809,
      "price":"$$$",
      "address":"555 S McDowell St",
      "city":"Charlotte",
      "zip":28204
   },
   {
      "id":"7rh29SPJMkyeI2BJcjqzLQ",
      "name":"Beijing Chinese Cuisine",
      "type":"Chinese",
      "rating":3.5,
      "lat":35.2134281937784,
      "long":-80.8555153012276,
      "price":"$",
      "address":"1603 S Blvd",
      "city":"Charlotte",
      "zip":28203
   },
   {
      "id":"uz8ISWdE0OSJBjArw4P4Og",
      "name":"Mellow Mushroom",
      "type":"Pizza",
      "rating":3,
      "lat":35.2258610579236,
      "long":-80.8477123135281,
      "price":"$$",
      "address":"255 W Martin Luther King Blvd",
      "city":"Charlotte",
      "zip":28202
   },
   {
      "id":"tTEtAzGbydufWtgOqCMquA",
      "name":"The Flipside Cafe",
      "type":"Breakfast & Brunch",
      "rating":4.5,
      "lat":35.0777216,
      "long":-80.934358,
      "price":"$$",
      "address":"3150 Hwy 21 N",
      "city":"Fort Mill",
      "zip":29715
   },
   {
      "id":"H-PmFfqAzQtWTS0XeWC_lw",
      "name":"Greco Fresh Grille",
      "type":"Greek",
      "rating":4.5,
      "lat":35.0351799,
      "long":-80.80697,
      "price":"$",
      "address":"9820 E Rea Rd",
      "city":"Charlotte",
      "zip":28277
   },
   {
      "id":"yIxP32hWfZm5gyYUUh2WBA",
      "name":"Bonterra Restaurant & Wine Room",
      "type":"American (New)",
      "rating":3.5,
      "lat":35.2100942,
      "long":-80.8571985,
      "price":"$$$",
      "address":"1829 Cleveland Ave",
      "city":"Charlotte",
      "zip":28203
   },
   {
      "id":"eAZqT24e0Pk8apWzy3RsAQ",
      "name":"McKoy's Smokehouse & Saloon",
      "type":"Barbeque",
      "rating":4,
      "lat":35.1788,
      "long":-80.88005,
      "price":"$$",
      "address":"4630 Old Pineville Rd",
      "city":"Charlotte",
      "zip":28217
   },
   {
      "id":"yIBeZebnXb-hvexqknnDCg",
      "name":"McNinch House Restaurant",
      "type":"French",
      "rating":4,
      "lat":35.23172,
      "long":-80.83967,
      "price":"$$$$",
      "address":"511 N Church St",
      "city":"Charlotte",
      "zip":28202
   },
   {
      "id":"H4E4sZ6PKBef65hU0GKi_g",
      "name":"StrikeCity",
      "type":"Sports Bars",
      "rating":3,
      "lat":35.2248680662701,
      "long":-80.8420255958605,
      "price":"$$",
      "address":"210 E Trade St",
      "city":"Charlotte",
      "zip":28202
   },
   {
      "id":"ZlrHrg7jrbO6blqwfa0MkQ",
      "name":"Baoding",
      "type":"Chinese",
      "rating":4,
      "lat":35.1475296,
      "long":-80.8314896,
      "price":"$$",
      "address":"4722 Sharon Rd",
      "city":"Charlotte",
      "zip":28210
   },
   {
      "id":"wC-wLFVCIjXArsrMuUJdYQ",
      "name":"Hunan Park",
      "type":"Chinese",
      "rating":3.5,
      "lat":35.3716758,
      "long":-80.7843814,
      "price":"$",
      "address":"5818 Prosperity Church Rd",
      "city":"Charlotte",
      "zip":28269
   },
   {
      "id":"HMJ0-SIWhvzFIkoWb2H9hQ",
      "name":"Salsarita's Fresh Mexican Grill",
      "type":"Mexican",
      "rating":3,
      "lat":35.176142,
      "long":-80.80239,
      "price":"$",
      "address":"304 S Sharon Amity Rd",
      "city":"Charlotte",
      "zip":28211
   },
   {
      "id":"QAHqplESgDUGgih45W9J-g",
      "name":"Dressler's - Charlotte",
      "type":"Seafood",
      "rating":4.5,
      "lat":35.21267,
      "long":-80.83563,
      "price":"$$$",
      "address":"1100-E Metropolitan Ave",
      "city":"Charlotte",
      "zip":28204
   },
   {
      "id":"bm_PGQMGMjylitqkNIEzTw",
      "name":"Vivace",
      "type":"Italian",
      "rating":4,
      "lat":35.2120561773333,
      "long":-80.8361443055572,
      "price":"$$",
      "address":"1100 Metropolitan Ave",
      "city":"Charlotte",
      "zip":28204
   },
   {
      "id":"nHdsHdq35JflGzliWVqG-Q",
      "name":"Johnny Burrito",
      "type":"Mexican",
      "rating":4.5,
      "lat":35.2255395054817,
      "long":-80.8454268425703,
      "price":"$",
      "address":"301 S Tryon St",
      "city":"Charlotte",
      "zip":28282
   },
   {
      "id":"VeFqptSzekFAc3FZOpi81Q",
      "name":"Alexander Michael's",
      "type":"American (Traditional)",
      "rating":4.5,
      "lat":35.23357,
      "long":-80.84083,
      "price":"$$",
      "address":"401 W 9th St",
      "city":"Charlotte",
      "zip":28202
   },
   {
      "id":"7DaZWpnx0Af73akl-wwxJg",
      "name":"Five Guys",
      "type":"Burgers",
      "rating":2.5,
      "lat":35.2204986985655,
      "long":-80.8156709761375,
      "price":"$",
      "address":"1326 Central Ave",
      "city":"Charlotte",
      "zip":28205
   },
   {
      "id":"rbbcyLXhGzIr0j4XNLdayw",
      "name":"Chick-fil-A",
      "type":"Fast Food",
      "rating":3,
      "lat":35.198116,
      "long":-80.868032,
      "price":"$",
      "address":"3015 South Blvd",
      "city":"Charlotte",
      "zip":28209
   },
   {
      "id":"ATMiPNPxN-g1ra7nar5prA",
      "name":"Fleming's Prime Steakhouse & Wine Bar - Charlotte",
      "type":"Steakhouses",
      "rating":3.5,
      "lat":35.225277,
      "long":-80.842028,
      "price":"$$$",
      "address":"210 E Trade St",
      "city":"Charlotte",
      "zip":28202
   },
   {
      "id":"Uyw1pJ03kt-I1B_tkA3aFg",
      "name":"Royal Biryani",
      "type":"Indian",
      "rating":4,
      "lat":35.1407971,
      "long":-80.7399859,
      "price":"$$",
      "address":"9624 Monroe Rd",
      "city":"Charlotte",
      "zip":28270
   },
   {
      "id":"--cZ6Hhc9F7VkKXxHMVZSQ",
      "name":"Pio Pio",
      "type":"Peruvian",
      "rating":4,
      "lat":35.1998528425529,
      "long":-80.8448199046631,
      "price":"$$",
      "address":"1408 E Blvd",
      "city":"Charlotte",
      "zip":28203
   },
   {
      "id":"yBzGYfkV3QQaiwMSHoCN3A",
      "name":"Tabla Indian Restaurant",
      "type":"Indian",
      "rating":4,
      "lat":35.0414801708236,
      "long":-80.8624121602055,
      "price":"$$",
      "address":"15025 Lancaster Hwy",
      "city":"Charlotte",
      "zip":28277
   },
   {
      "id":"5fquJHY2hMX9tPRD5s0t5g",
      "name":"Rooster's Uptown",
      "type":"American (New)",
      "rating":4,
      "lat":35.2265,
      "long":-80.840796,
      "price":"$$",
      "address":"150 N College St",
      "city":"Charlotte",
      "zip":28202
   },
   {
      "id":"jZUizCQ4nRmyovBeuUniGQ",
      "name":"Stone Mountain Grill",
      "type":"American (New)",
      "rating":3.5,
      "lat":35.05789,
      "long":-80.851262,
      "price":"$$",
      "address":"15719 Brixham Hill Ave",
      "city":"Charlotte",
      "zip":28277
   },
   {
      "id":"Ggh9JwuIwPBiMmx16kAiug",
      "name":"Sushi Guru",
      "type":"Sushi Bars",
      "rating":3.5,
      "lat":35.1542664054846,
      "long":-80.8280182217636,
      "price":"$$",
      "address":"6601 Morrison Blvd",
      "city":"Charlotte",
      "zip":28211
   },
   {
      "id":"mqUgobkWrQgfYo3ri1foVA",
      "name":"Kabab Je Rotisserie and Grille",
      "type":"Mediterranean",
      "rating":4,
      "lat":35.060634,
      "long":-80.816192,
      "price":"$$",
      "address":"7828 Rea Rd",
      "city":"Charlotte",
      "zip":28277
   },
   {
      "id":"boug058JCnbFkQp-K_fXQA",
      "name":"Ruth's Chris Steak House",
      "type":"Steakhouses",
      "rating":4,
      "lat":35.2262229919434,
      "long":-80.8451614379883,
      "price":"$$$",
      "address":"222 S Tryon St",
      "city":"Charlotte",
      "zip":28202
   },
   {
      "id":"yOBDY3fpaTpX4Q5JpmExMg",
      "name":"Taqueria Mexico",
      "type":"Mexican",
      "rating":4,
      "lat":35.139564,
      "long":-80.876228,
      "price":"$",
      "address":"7001 South Blvd",
      "city":"Charlotte",
      "zip":28217
   },
   {
      "id":"apMG3W6-qpHIuo4ApZy3IA",
      "name":"Bricktop's Restaurant",
      "type":"Breakfast & Brunch",
      "rating":4,
      "lat":35.156344,
      "long":-80.831879,
      "price":"$$",
      "address":"6401 Morrison Blvd",
      "city":"Charlotte",
      "zip":28211
   },
   {
      "id":"_sf5MgDqH9P5OnK3tsHfkg",
      "name":"John's Family Restaurant",
      "type":"American (Traditional)",
      "rating":3.5,
      "lat":35.129871,
      "long":-80.937683,
      "price":"$",
      "address":"2002 Westinghouse Blvd",
      "city":"Charlotte",
      "zip":28273
   },
   {
      "id":"wJnhUJCOYkncLPZAwaMffA",
      "name":"Room 112",
      "type":"Asian Fusion",
      "rating":3.5,
      "lat":35.2270964,
      "long":-80.8438287,
      "price":"$$",
      "address":"112 S Tryon St",
      "city":"Charlotte",
      "zip":28284
   },
   {
      "id":"vMKQaR8bI2saI7rz8H5MYg",
      "name":"Sabor Latin Street Grill - Noda",
      "type":"Mexican",
      "rating":4,
      "lat":35.24736,
      "long":-80.80566,
      "price":"$",
      "address":"3205 N Davidson St",
      "city":"Charlotte",
      "zip":28205
   },
   {
      "id":"LpyndkMvevIQA-JHoReHNw",
      "name":"Jaipur Indian Restaurant",
      "type":"Indian",
      "rating":3.5,
      "lat":35.155407,
      "long":-80.875309,
      "price":"$$",
      "address":"5909 South Blvd",
      "city":"Charlotte",
      "zip":28217
   },
   {
      "id":"aIJqDWUt10iS45zYCr0KcQ",
      "name":"Thai Taste",
      "type":"Thai",
      "rating":3.5,
      "lat":35.21002,
      "long":-80.856,
      "price":"$$",
      "address":"324 East Blvd",
      "city":"Charlotte",
      "zip":28203
   },
   {
      "id":"o5QDrg_kb4hgsWxV6cV_Uw",
      "name":"The Flying Biscuit Cafe - Charlotte",
      "type":"Breakfast & Brunch",
      "rating":4,
      "lat":35.1742292692206,
      "long":-80.8481419086456,
      "price":"$$",
      "address":"4241 Park Rd",
      "city":"Charlotte",
      "zip":28209
   },
   {
      "id":"ICUCAzUZFiWkYs7iCtNCQg",
      "name":"Copper Modern Indian Cuisine",
      "type":"Indian",
      "rating":4,
      "lat":35.2107699,
      "long":-80.85582,
      "price":"$$",
      "address":"311 East Blvd",
      "city":"Charlotte",
      "zip":28203
   },
   {
      "id":"1NmGVWYlF4iMngM6arKJTQ",
      "name":"Pho Huong Que",
      "type":"Vietnamese",
      "rating":3.5,
      "lat":35.16302,
      "long":-80.73824,
      "price":"$$",
      "address":"7211 E Independence Blvd",
      "city":"Charlotte",
      "zip":28227
   },
   {
      "id":"s6lTNO57vXsfzyYrPfXOvA",
      "name":"Vietnam Grille",
      "type":"Vietnamese",
      "rating":4,
      "lat":35.1598255647287,
      "long":-80.875802542826,
      "price":"$$",
      "address":"5615 South Blvd",
      "city":"Charlotte",
      "zip":28217
   },
   {
      "id":"KEGLWeFAWXvo0W2LnujhtQ",
      "name":"Lang Van Vietnamese",
      "type":"Vietnamese",
      "rating":4.5,
      "lat":35.23666,
      "long":-80.77453,
      "price":"$$",
      "address":"3019 Shamrock Dr",
      "city":"Charlotte",
      "zip":28215
   },
   {
      "id":"gChmBjLSe3qa8rzEngoDLQ",
      "name":"Fahrenheit",
      "type":"American (New)",
      "rating":3,
      "lat":35.2225852263071,
      "long":-80.8410940691829,
      "price":"$$$",
      "address":"222 S Caldwell St",
      "city":"Charlotte",
      "zip":28202
   },
   {
      "id":"ny8YcGEViSGKWxo69xfiiA",
      "name":"Sauceman's",
      "type":"Barbeque",
      "rating":3.5,
      "lat":35.2139577680734,
      "long":-80.8612242949982,
      "price":"$$",
      "address":"228 W Blvd",
      "city":"Charlotte",
      "zip":28203
   },
   {
      "id":"GTB4esadYFFyLTJX9OqNdw",
      "name":"Dragon Court",
      "type":"Dim Sum",
      "rating":3,
      "lat":35.256935,
      "long":-80.79124,
      "price":"$$",
      "address":"4520 N Tryon St",
      "city":"Charlotte",
      "zip":28213
   },
   {
      "id":"k-drEjxKmfqllwfY90STfA",
      "name":"Cantina 1511",
      "type":"Mexican",
      "rating":3.5,
      "lat":35.17343,
      "long":-80.84995,
      "price":"$$",
      "address":"4271 Park Rd",
      "city":"Charlotte",
      "zip":28209
   },
   {
      "id":"zpGCFAt_MydbQN4EsXee6w",
      "name":"Banh Mi Brothers",
      "type":"Vietnamese",
      "rating":4.5,
      "lat":35.3035097937857,
      "long":-80.7487670917075,
      "price":"$",
      "address":"230 Wt Harris Blvd",
      "city":"Charlotte",
      "zip":28262
   },
   {
      "id":"JogUSDKa1xyG3lLEmD4Xjg",
      "name":"Fiamma",
      "type":"Italian",
      "rating":4,
      "lat":35.1976756,
      "long":-80.8519236,
      "price":"$$",
      "address":"2418 Park Rd",
      "city":"Charlotte",
      "zip":28263
   },
   {
      "id":"ZwYhFeyU7H8196rPQYmLUg",
      "name":"Vintner Wine Market",
      "type":"Beer, Wine & Spirits",
      "rating":4,
      "lat":35.09631,
      "long":-80.77948,
      "price":"$$",
      "address":"8128 Providence Rd",
      "city":"Charlotte",
      "zip":28277
   },
   {
      "id":"9TCzxlrOZSIFcBlvHIUgFA",
      "name":"PePeRo",
      "type":"Korean",
      "rating":4,
      "lat":35.12465,
      "long":-80.7302799,
      "price":"$$",
      "address":"10920 Monroe Rd",
      "city":"Matthews",
      "zip":28105
   },
   {
      "id":"v0ubf7h2E0OfwGGfkI1S4w",
      "name":"Que Onda Tacos Matthews",
      "type":"Mexican",
      "rating":4.5,
      "lat":35.0843999869986,
      "long":-80.731410151906,
      "price":"$$",
      "address":"3016 Weddington Rd",
      "city":"Charlotte",
      "zip":28105
   },
   {
      "id":"a0Jm-rlHOKk_1fm4hzxskg",
      "name":"Wan Fu",
      "type":"Chinese",
      "rating":4,
      "lat":35.0886192321777,
      "long":-80.8615798950195,
      "price":"$$",
      "address":"10719 Kettering Dr",
      "city":"Charlotte",
      "zip":28226
   },
   {
      "id":"aO1gAp41n8w8zpxTiHdLNA",
      "name":"Mert's Heart & Soul",
      "type":"Southern",
      "rating":3.5,
      "lat":35.2275006314682,
      "long":-80.8403795540396,
      "price":"$$",
      "address":"214 N College St",
      "city":"Charlotte",
      "zip":28202
   },
   {
      "id":"T6r1CjkbVHMsGpR2dlyXuQ",
      "name":"Sushiya Japan",
      "type":"Japanese",
      "rating":4,
      "lat":35.09631,
      "long":-80.77948,
      "price":"$$",
      "address":"8200 Providence Rd",
      "city":"Charlotte",
      "zip":28277
   },
   {
      "id":"AHosGBveeXx9YjsQvdJgeg",
      "name":"Bentley's on 27",
      "type":"French",
      "rating":4,
      "lat":35.22508,
      "long":-80.84356,
      "price":"$$$$",
      "address":"201 S College St",
      "city":"Charlotte",
      "zip":28244
   },
   {
      "id":"gJttMZnv0Gy9OlLhNzPbQQ",
      "name":"LittleSpoon",
      "type":"Breakfast & Brunch",
      "rating":3.5,
      "lat":35.1742605839744,
      "long":-80.8402330343933,
      "price":"$$",
      "address":"2820 Selwyn Ave",
      "city":"Charlotte",
      "zip":28209
   },
   {
      "id":"J7fekWie4ZwR03AZVBisFw",
      "name":"Cafe South",
      "type":"Breakfast & Brunch",
      "rating":4,
      "lat":35.1359891775362,
      "long":-80.9049696592624,
      "price":"$$",
      "address":"7901 Forest Pine Dr",
      "city":"Charlotte",
      "zip":28273
   },
   {
      "id":"9dqdzRzjSfbnMvjUGqWBAw",
      "name":"Midnight Diner",
      "type":"Diners",
      "rating":4,
      "lat":35.2195687,
      "long":-80.852309,
      "price":"$",
      "address":"115 E Carson Blvd",
      "city":"Charlotte",
      "zip":28203
   },
   {
      "id":"8T5JnB9qL5y8RaCHH5zKSQ",
      "name":"Bean Vegan Cuisine",
      "type":"Vegetarian",
      "rating":3.5,
      "lat":35.204441,
      "long":-80.792183,
      "price":"$$",
      "address":"3001 E Independence Blvd",
      "city":"Charlotte",
      "zip":28205
   },
   {
      "id":"_ruizXa-KyFO5mNA0p3nBA",
      "name":"Webb Custom Kitchen",
      "type":"American (New)",
      "rating":4.5,
      "lat":35.2625,
      "long":-81.183563,
      "price":"$$",
      "address":"182 S South St",
      "city":"Gastonia",
      "zip":28052
   },
   {
      "id":"jNQnscvgn_dMTS954qW_9Q",
      "name":"The World Famous Open Kitchen",
      "type":"Italian",
      "rating":3,
      "lat":35.229305267334,
      "long":-80.8633499145508,
      "price":"$$",
      "address":"1318 W Morehead St",
      "city":"Charlotte",
      "zip":28208
   },
   {
      "id":"osSwv6CJy5hDKQdOKeyTow",
      "name":"Ru San's",
      "type":"Sushi Bars",
      "rating":4,
      "lat":35.1977376810067,
      "long":-80.8527190502625,
      "price":"$$",
      "address":"2440 Park Rd",
      "city":"Charlotte",
      "zip":28203
   },
   {
      "id":"Y84fM25GsIWfS7E0dMIKDQ",
      "name":"Cedar Street Tavern",
      "type":"American (Traditional)",
      "rating":3.5,
      "lat":35.23344,
      "long":-80.84901,
      "price":"$$",
      "address":"120 N Cedar St",
      "city":"Charlotte",
      "zip":28202
   },
   {
      "id":"WCqcYtJ4rUxA4bIzjOfzqg",
      "name":"Vapiano",
      "type":"Italian",
      "rating":3.5,
      "lat":35.226145,
      "long":-80.844234,
      "price":"$$",
      "address":"201 S Tryon St",
      "city":"Charlotte",
      "zip":28202
   },
   {
      "id":"c4KXpCou6HBOgfKp2z2_hw",
      "name":"Terrace - Ballantyne",
      "type":"Southern",
      "rating":3.5,
      "lat":35.05369,
      "long":-80.85146,
      "price":"$$",
      "address":"14815 Ballantyne Village Way",
      "city":"Charlotte",
      "zip":28277
   },
   {
      "id":"jUF7BSWB2s7Xgp5PbISbsg",
      "name":"Caribbean Hut",
      "type":"Caribbean",
      "rating":3.5,
      "lat":35.31711,
      "long":-80.73994,
      "price":"$$",
      "address":"9609 N Tryon St",
      "city":"Charlotte",
      "zip":28262
   },
   {
      "id":"VkO8Ky0NTPr5XJzVvWLDYg",
      "name":"Dorian's Deli & Grill",
      "type":"Delis",
      "rating":4,
      "lat":35.11752,
      "long":-80.70259,
      "price":"$",
      "address":"1240 Matthews Mint Hill Rd",
      "city":"Matthews",
      "zip":28105
   },
   {
      "id":"Gmdb6fOoPr-SZt0soRjwzA",
      "name":"Quidleys Delight",
      "type":"Caribbean",
      "rating":4.5,
      "lat":35.31434,
      "long":-80.70251,
      "price":"$$",
      "address":"10901 University City Blvd",
      "city":"Charlotte",
      "zip":28262
   },
   {
      "id":"hWIQ6rl1uub-WVGTySvOsw",
      "name":"Cook Out",
      "type":"Burgers",
      "rating":3.5,
      "lat":35.1216,
      "long":-80.9499,
      "price":"$",
      "address":"13317 York Center Dr",
      "city":"Charlotte",
      "zip":28273
   },
   {
      "id":"OHAMMo1sdmvFw9SsS-AZQg",
      "name":"Chicken Box Cafe",
      "type":"Soul Food",
      "rating":3,
      "lat":35.280399,
      "long":-80.794036,
      "price":"$$",
      "address":"1331 W Sugar Creek Rd",
      "city":"Charlotte",
      "zip":28262
   },
   {
      "id":"1ylgrtS3iSNaf3V68kw4bw",
      "name":"Local Dish",
      "type":"Southern",
      "rating":4.5,
      "lat":35.0078170041275,
      "long":-80.9441623091698,
      "price":"$$",
      "address":"217 Main St",
      "city":"Fort Mill",
      "zip":29715
   },
   {
      "id":"MtzjOi57BkQrqF8wqNOyHg",
      "name":"Nana's Soul Food Kitchen",
      "type":"Soul Food",
      "rating":4,
      "lat":35.1905,
      "long":-80.92202,
      "price":"$$",
      "address":"2908 Oak Lake Blvd",
      "city":"Charlotte",
      "zip":28208
   },
   {
      "id":"PdfyzKoGrCoFFhPlnOpqfw",
      "name":"Pho Cali Thai",
      "type":"Vietnamese",
      "rating":3.5,
      "lat":35.1338376386944,
      "long":-80.93912919679,
      "price":"$$",
      "address":"9107 S Tryon St",
      "city":"Charlotte",
      "zip":28273
   },
   {
      "id":"AuIiqDeL65kczmiFSkAWrA",
      "name":"Maggiano's Little Italy",
      "type":"Italian",
      "rating":3.5,
      "lat":35.152157023777,
      "long":-80.8302691113617,
      "price":"$$",
      "address":"4400 Sharon Rd",
      "city":"Charlotte",
      "zip":28211
   },
   {
      "id":"KU7eFCdA47v6zeKF3a7j6A",
      "name":"New South Kitchen & Bar",
      "type":"Southern",
      "rating":4,
      "lat":35.096896,
      "long":-80.77876,
      "price":"$$",
      "address":"8140 Providence Rd",
      "city":"Charlotte",
      "zip":28277
   },
   {
      "id":"5gl2GLgimBz1-Q-uXji_Rw",
      "name":"Milano's Pizza & Pasta",
      "type":"Italian",
      "rating":3.5,
      "lat":35.12835,
      "long":-80.94309,
      "price":"$$",
      "address":"9640 S Tryon St",
      "city":"Charlotte",
      "zip":28273
   },
   {
      "id":"mC39IrCp36QIVFRZIw9PTQ",
      "name":"Seoul Food Meat Company",
      "type":"Korean",
      "rating":4,
      "lat":35.2192611694336,
      "long":-80.8578567504883,
      "price":"$$",
      "address":"1400 S Church St",
      "city":"Charlotte",
      "zip":28203
   },
   {
      "id":"WPkRg0eaJZFbyXm0uNb1ZA",
      "name":"Cabo's Mexican Cuisine and Cantina",
      "type":"Mexican",
      "rating":4,
      "lat":35.0863331,
      "long":-80.8462543,
      "price":"$$",
      "address":"6676 Carmel Rd",
      "city":"Charlotte",
      "zip":28226
   },
   {
      "id":"biCO6zc-opMp-uJ6rkTENA",
      "name":"Bonchon - Woodlawn",
      "type":"Korean",
      "rating":3.5,
      "lat":35.172213623598,
      "long":-80.848964631997,
      "price":"$$",
      "address":"1600 E Woodlawn Rd",
      "city":"Charlotte",
      "zip":28209
   },
   {
      "id":"NwWYSYGHFyHQMmsXu0SiYA",
      "name":"The Burger Company",
      "type":"Burgers",
      "rating":3,
      "lat":35.22959,
      "long":-80.86561,
      "price":"$$",
      "address":"1500C W Morehead St",
      "city":"Charlotte",
      "zip":28208
   },
   {
      "id":"yXiDD18UV49-7UhA6dWjAw",
      "name":"Giacomo's Pizzeria and Italian Restaurant",
      "type":"Pizza",
      "rating":4,
      "lat":35.32928,
      "long":-80.742,
      "price":"$$",
      "address":"10230 Berkeley Place Dr",
      "city":"Charlotte",
      "zip":28262
   },
   {
      "id":"QeDkfLmXVguytF3Of9zg-Q",
      "name":"Boudreaux's Louisiana Kitchen",
      "type":"Cajun/Creole",
      "rating":3.5,
      "lat":35.24761,
      "long":-80.80403,
      "price":"$$",
      "address":"501 E 36th St",
      "city":"Charlotte",
      "zip":28205
   },
   {
      "id":"RApd_uvsR3dDNekgc1Emrw",
      "name":"Boiling Pot",
      "type":"Fondue",
      "rating":4,
      "lat":35.350323,
      "long":-80.842886,
      "price":"$$",
      "address":"7010 Smith Corners Blvd",
      "city":"Charlotte",
      "zip":28269
   },
   {
      "id":"NMw6zTXoZDEzNchVIfL1pQ",
      "name":"Don Pedro Mexican Restaurant",
      "type":"Mexican",
      "rating":3.5,
      "lat":35.1358576315669,
      "long":-80.937357992332,
      "price":"$$",
      "address":"8943 S Tryon St",
      "city":"Charlotte",
      "zip":28273
   },
   {
      "id":"Oi-u4KqrcZbIWSYKnh7mJA",
      "name":"Fortune Cookie II",
      "type":"Chinese",
      "rating":3.5,
      "lat":35.1369323730469,
      "long":-80.9367980957031,
      "price":"$",
      "address":"8943 S Tryon St",
      "city":"Charlotte",
      "zip":28273
   },
   {
      "id":"WlMegJTLkMdo6FO6Vfnq0Q",
      "name":"Sunset Soul Food",
      "type":"Seafood",
      "rating":3.5,
      "lat":35.3035,
      "long":-80.85771,
      "price":"$$",
      "address":"5009 Beatties Ford Rd",
      "city":"Charlotte",
      "zip":28217
   },
   {
      "id":"dk1wKOtlFi212DDMNr1pXg",
      "name":"Courtyard by Marriott Charlotte Ballantyne",
      "type":"Hotels",
      "rating":4,
      "lat":35.05942,
      "long":-80.85061,
      "price":"$$$",
      "address":"15635 Don Lochman Lane",
      "city":"Charlotte",
      "zip":28227
   },
   {
      "id":"yMopev-RPxfEXgqkJOvCGA",
      "name":"Cajun Queen",
      "type":"Cajun/Creole",
      "rating":4,
      "lat":35.21449,
      "long":-80.82111,
      "price":"$$",
      "address":"1800 E 7th St",
      "city":"Charlotte",
      "zip":28204
   },
   {
      "id":"S-V-belb3Gv7qrNVftLHwQ",
      "name":"Kabuto Japanese Steakhouse and Sushi Bar",
      "type":"Sushi Bars",
      "rating":2,
      "lat":35.162263,
      "long":-80.886091,
      "price":"$$",
      "address":"446 Tyvola Rd",
      "city":"Charlotte",
      "zip":28217
   },
   {
      "id":"iyFS4twFjCKfaKl7kUl3sg",
      "name":"Harry's Grille & Tavern",
      "type":"Bars",
      "rating":4,
      "lat":35.13807,
      "long":-80.93319,
      "price":"$$",
      "address":"2127 Ayrsley Town Blvd",
      "city":"Charlotte",
      "zip":28273
   },
   {
      "id":"Nk2gNrMDZa9_7gmT3W-zjQ",
      "name":"Thai Taste at University",
      "type":"Thai",
      "rating":3.5,
      "lat":35.33703,
      "long":-80.75653,
      "price":"$$",
      "address":"2025 E Arbors Dr",
      "city":"Charlotte",
      "zip":28262
   },
   {
      "id":"y1eeVRfJa22CCpUCeNfrSw",
      "name":"Basil Thai Cuisine",
      "type":"Thai",
      "rating":3.5,
      "lat":35.229,
      "long":-80.84242,
      "price":"$$",
      "address":"210 N Church St",
      "city":"Charlotte",
      "zip":28202
   },
   {
      "id":"dk7VpR5Xh7t28U99ASZz7A",
      "name":"Brazz Carvery & Brazilian Steakhouse",
      "type":"Steakhouses",
      "rating":3.5,
      "lat":35.2231876,
      "long":-80.8466272,
      "price":"$$$",
      "address":"500 S College St",
      "city":"Charlotte",
      "zip":28202
   },
   {
      "id":"EbgUkmDxPUa2fr0rc8EFJQ",
      "name":"P.F. Chang's",
      "type":"Chinese",
      "rating":3,
      "lat":35.1465562987188,
      "long":-80.8267944753231,
      "price":"$$",
      "address":"6809-F Phillips Place Ct",
      "city":"Charlotte",
      "zip":28210
   },
   {
      "id":"Ul2AUiQpsn2lz9DtBKMJcA",
      "name":"Fairfield Inn & Suites by Marriott Charlotte Airport",
      "type":"Hotels",
      "rating":3,
      "lat":35.181305,
      "long":-80.914393,
      "price":"$$",
      "address":"2220 W Tyvola Rd",
      "city":"Charlotte",
      "zip":28217
   },
   {
      "id":"UByM7N0mF-ylIGUuIWHCtA",
      "name":"Sullivan's Steakhouse",
      "type":"Steakhouses",
      "rating":3.5,
      "lat":35.2101676933474,
      "long":-80.8599308916656,
      "price":"$$$",
      "address":"1928 South Blvd",
      "city":"Charlotte",
      "zip":28203
   },
   {
      "id":"bMTqFQqYoeANon4iVlatpQ",
      "name":"Jimmie's Restaurant",
      "type":"American (Traditional)",
      "rating":3,
      "lat":35.1714859008789,
      "long":-80.660774230957,
      "price":"$",
      "address":"7024 Brighton Park Dr",
      "city":"Charlotte",
      "zip":28227
   },
   {
      "id":"NMO1hExBvamoZ9RKEVNcYg",
      "name":"McCormick & Schmick's Seafood & Steaks",
      "type":"Seafood",
      "rating":3,
      "lat":35.2265734,
      "long":-80.8444773,
      "price":"$$$",
      "address":"200 S Tryon St",
      "city":"Charlotte",
      "zip":28202
   },
   {
      "id":"v4HpZFOU3mvIeuHLRSIi7g",
      "name":"Bahn Thai",
      "type":"Thai",
      "rating":4,
      "lat":35.0708159675029,
      "long":-80.8440170064569,
      "price":"$$",
      "address":"12206 Copper Way",
      "city":"Charlotte",
      "zip":28277
   },
   {
      "id":"SQEA7XcYZ6ygpuSnCSy1IQ",
      "name":"Texas Roadhouse",
      "type":"Steakhouses",
      "rating":3.5,
      "lat":35.1259804,
      "long":-80.7062836,
      "price":"$$",
      "address":"10450 E. Independence Blvd.",
      "city":"Matthews",
      "zip":28105
   },
   {
      "id":"LpAdf_z1A9REhTQjr1B4cA",
      "name":"McCormick & Schmick's Seafood & Steaks",
      "type":"Seafood",
      "rating":3.5,
      "lat":35.1529699850775,
      "long":-80.8343189539863,
      "price":"$$",
      "address":"4335 Barclay Downs Dr",
      "city":"Charlotte",
      "zip":28209
   },
   {
      "id":"YZjqRPrLZBOh2Lz5iVbuHA",
      "name":"Taco Bell",
      "type":"Mexican",
      "rating":3.5,
      "lat":35.084106,
      "long":-80.878954,
      "price":"$",
      "address":"10917 Carolina Place Pkwy",
      "city":"Pineville",
      "zip":28134
   },
   {
      "id":"FrfzI901uS2bU2kgUkqaVw",
      "name":"Pearlz Oyster Bar",
      "type":"Seafood",
      "rating":4,
      "lat":35.060801,
      "long":-80.814302,
      "price":"$$",
      "address":"7804 Rea Rd",
      "city":"Charlotte",
      "zip":28277
   },
   {
      "id":"bzbNGyrTwWHAgg1CqkSgeg",
      "name":"Stewart Penick's Terrace",
      "type":"Southern",
      "rating":4,
      "lat":35.1524371764842,
      "long":-80.8395179364014,
      "price":"$$",
      "address":"4625 Piedmont Row Dr",
      "city":"Charlotte",
      "zip":28210
   },
   {
      "id":"HiA9a6M9M_5Jb3W5GdDrXQ",
      "name":"Courtyard by Marriott Charlotte City Center",
      "type":"Hotels",
      "rating":3,
      "lat":35.225704,
      "long":-80.844848,
      "price":"$$",
      "address":"237 S Tryon St",
      "city":"Charlotte",
      "zip":28202
   },
   {
      "id":"GNIxpOWJcjx5pGN9IBgrYQ",
      "name":"Tin Roof",
      "type":"Music Venues",
      "rating":3,
      "lat":35.225242,
      "long":-80.84173,
      "price":"$",
      "address":"210 E Trade St",
      "city":"Charlotte",
      "zip":28202
   },
   {
      "id":"SlQNMsVEOSxN-ciIn93LOw",
      "name":"House Of Leng At Boardwalk",
      "type":"Chinese",
      "rating":3.5,
      "lat":35.30985,
      "long":-80.7488,
      "price":"$$",
      "address":"8933 J M Keynes Dr",
      "city":"Charlotte",
      "zip":28262
   },
   {
      "id":"yymNrvk1cioG5Bn5lWH2QQ",
      "name":"Wild Wing Cafe",
      "type":"American (Traditional)",
      "rating":2.5,
      "lat":35.225324,
      "long":-80.842187,
      "price":"$$",
      "address":"210 E Trade St",
      "city":"Charlotte",
      "zip":28202
   },
   {
      "id":"eZDXz_RylvdD0tHEA8I0NA",
      "name":"New Zealand Cafe",
      "type":"Sushi Bars",
      "rating":4,
      "lat":35.140625,
      "long":-80.737637,
      "price":"$$",
      "address":"1717 N Sardis Rd",
      "city":"Charlotte",
      "zip":28270
   },
   {
      "id":"XdhisHedvykhoCnm6eS9-A",
      "name":"Wingstop",
      "type":"Chicken Wings",
      "rating":2,
      "lat":35.1784285450813,
      "long":-80.7564096304272,
      "price":"$$",
      "address":"6609 Monroe Rd Ste 110",
      "city":"Charlotte",
      "zip":28212
   },
   {
      "id":"MV9fUwgI2AQa4uZArynRlA",
      "name":"Monterrey",
      "type":"Mexican",
      "rating":3,
      "lat":35.089838,
      "long":-80.868412,
      "price":"$",
      "address":"10707 Park Rd",
      "city":"Charlotte",
      "zip":28210
   },
   {
      "id":"1JOQhzsW6cu4yVHuPhlRwQ",
      "name":"El Valle Mexican Restaurant",
      "type":"Mexican",
      "rating":4,
      "lat":35.1177434,
      "long":-80.7254982,
      "price":"$",
      "address":"305 W John St",
      "city":"Matthews",
      "zip":28105
   },
   {
      "id":"kgmVm_ZbJsJpSye27xccvg",
      "name":"Killingtons Restaurant & Pub",
      "type":"American (Traditional)",
      "rating":4,
      "lat":35.4090885,
      "long":-80.8605753,
      "price":"$$",
      "address":"10010C Rose Commons Dr",
      "city":"Huntersville",
      "zip":28078
   },
   {
      "id":"Z35sWrHZ8pfaHRuXLZc0lQ",
      "name":"South 21 Matthews",
      "type":"Burgers",
      "rating":4,
      "lat":35.11533,
      "long":-80.69508,
      "price":"$",
      "address":"11450 E Independence Blvd",
      "city":"Matthews",
      "zip":28105
   },
   {
      "id":"ynvp3qvt3xc321dLKFxpgA",
      "name":"Hilton Charlotte Center City",
      "type":"Hotels",
      "rating":3,
      "lat":35.2237356,
      "long":-80.8436325,
      "price":"$$$",
      "address":"222 E 3rd St",
      "city":"Charlotte",
      "zip":28202
   },
   {
      "id":"0DyDT4NJNaIuDpT7nTIjxg",
      "name":"Chaupaati",
      "type":"Indian",
      "rating":4,
      "lat":35.08753,
      "long":-80.87178,
      "price":"$$",
      "address":"9101 Pineville Matthews Rd",
      "city":"Pineville",
      "zip":28134
   },
   {
      "id":"yVhEA59Q4vcfQ6z7mIqysg",
      "name":"Crackin' Crawfish",
      "type":"Seafood",
      "rating":3.5,
      "lat":35.3024162666032,
      "long":-80.7478761550294,
      "price":"$$",
      "address":"440 E Mccullough Dr",
      "city":"Charlotte",
      "zip":28262
   },
   {
      "id":"tMKblwX0CeCDZbCz6ruyPg",
      "name":"Cocoa's Jamaican Jerk",
      "type":"Caribbean",
      "rating":3,
      "lat":35.3335099,
      "long":-80.79633,
      "price":"$$",
      "address":"6316-A Old Sugar Creek Rd",
      "city":"Charlotte",
      "zip":28269
   },
   {
      "id":"sPwh9yiJYeyAN4CBq_tUYg",
      "name":"Hickory Tavern",
      "type":"American (Traditional)",
      "rating":3.5,
      "lat":35.0711594476984,
      "long":-80.8441382944558,
      "price":"$$",
      "address":"12210 Copper Way",
      "city":"Charlotte",
      "zip":28277
   },
   {
      "id":"rqjhez-ulSyMkr7lMGJwFA",
      "name":"Red Ginger",
      "type":"Sushi Bars",
      "rating":3,
      "lat":35.2240551792898,
      "long":-80.8455877507873,
      "price":"$$",
      "address":"401 S Tryon St",
      "city":"Charlotte",
      "zip":28202
   },
   {
      "id":"80TTAvMtRsPPFtFFnXgskA",
      "name":"Genghis Grill",
      "type":"Mongolian",
      "rating":3.5,
      "lat":35.0559982,
      "long":-80.8354186,
      "price":"$$",
      "address":"11324 North Community House Rd",
      "city":"Charlotte",
      "zip":28277
   },
   {
      "id":"npWIa3dIPEV1MTaZNq6AUA",
      "name":"Firebirds Wood Fired Grill",
      "type":"Steakhouses",
      "rating":4,
      "lat":35.062086,
      "long":-80.8161,
      "price":"$$",
      "address":"7716 Rea Rd",
      "city":"Charlotte",
      "zip":28277
   },
   {
      "id":"67FzueRMlcTQV3Nuep2qPw",
      "name":"Lotus Chinese Cuisine",
      "type":"Chinese",
      "rating":2.5,
      "lat":35.33456,
      "long":-80.7947,
      "price":"$",
      "address":"3716 W Wt Harris Blvd",
      "city":"Charlotte",
      "zip":28269
   },
   {
      "id":"ASC3JV2Jh09lTyJZ98UMFA",
      "name":"El Veracruz Mexican Restaurant",
      "type":"Mexican",
      "rating":4,
      "lat":35.084015,
      "long":-80.88275,
      "price":"$$",
      "address":"391 Towne Centre Blvd",
      "city":"Pineville",
      "zip":28134
   },
   {
      "id":"WVi8G1QuTYsaIuOLUAfG-Q",
      "name":"Harrisburg Family House",
      "type":"Italian",
      "rating":3.5,
      "lat":35.320054,
      "long":-80.667621,
      "price":"$",
      "address":"5429 Hwy 49 S",
      "city":"Harrisburg",
      "zip":28075
   },
   {
      "id":"f12Zv1B9crmSW58iyTR_mA",
      "name":"Midwood Smokehouse",
      "type":"Barbeque",
      "rating":4,
      "lat":35.07018,
      "long":-80.8435,
      "price":"$$",
      "address":"12410 Johnston Rd",
      "city":"Charlotte",
      "zip":28277
   },
   {
      "id":"sphMzEIqY1I2Dzv3zLZY2g",
      "name":"Global Restaurant",
      "type":"American (New)",
      "rating":4,
      "lat":35.0858607085166,
      "long":-80.890496738377,
      "price":"$$$",
      "address":"314 Main St",
      "city":"Pineville",
      "zip":28134
   },
   {
      "id":"h4GIdwfCp0Zzf46q33UWEQ",
      "name":"Bobbee O's BBQ",
      "type":"Barbeque",
      "rating":3.5,
      "lat":35.3497049,
      "long":-80.8420243,
      "price":"$$",
      "address":"9401 Statesville Rd",
      "city":"Charlotte",
      "zip":28269
   },
   {
      "id":"oWQaP9yP77B3Au0LAEevdQ",
      "name":"Publix",
      "type":"Grocery",
      "rating":4,
      "lat":35.1458954316722,
      "long":-80.9295107424259,
      "price":"$$",
      "address":"8120 South Tryon St",
      "city":"Charlotte",
      "zip":28273
   },
   {
      "id":"mrzGyreS9XKOOTMo9LnlSA",
      "name":"Hokkaido Japanese Express",
      "type":"Japanese",
      "rating":2.5,
      "lat":35.1460137312744,
      "long":-80.9365144490732,
      "price":"$$",
      "address":"8170-G S Tryon St",
      "city":"Charlotte",
      "zip":28273
   },
   {
      "id":"Sqbx1-q5b8DbqWPWnBkBqQ",
      "name":"Westlake Restaurant",
      "type":"Breakfast & Brunch",
      "rating":4.5,
      "lat":35.476432,
      "long":-80.993982,
      "price":"$",
      "address":"1235 N Hwy 16",
      "city":"Denver",
      "zip":28037
   },
   {
      "id":"qqIgj3vpc54Bab5xWfwONA",
      "name":"Pita Kabab Grill",
      "type":"Mediterranean",
      "rating":4,
      "lat":35.1155281066895,
      "long":-80.7207336425781,
      "price":"$$",
      "address":"131 E John St",
      "city":"Matthews",
      "zip":28105
   },
   {
      "id":"2bTfMJCido0G8U0tk8hDkg",
      "name":"FlatIron Kitchen & Taphouse",
      "type":"American (New)",
      "rating":3.5,
      "lat":35.49751,
      "long":-80.84931,
      "price":"$$",
      "address":"215 S Main St",
      "city":"Davidson",
      "zip":28036
   },
   {
      "id":"PkJUpidg_HzdxtdF6wDxeg",
      "name":"Aloft Charlotte Uptown at the EpiCentre",
      "type":"Hotels",
      "rating":3,
      "lat":35.22538,
      "long":-80.84201,
      "price":"$$",
      "address":"210 E Trade St",
      "city":"Charlotte",
      "zip":28202
   },
   {
      "id":"G8XgwAr9Ex39SI-DUFZRSw",
      "name":"The Trail House",
      "type":"American (New)",
      "rating":3.5,
      "lat":35.04914,
      "long":-80.64574,
      "price":"$$",
      "address":"6751 Old Monroe Rd",
      "city":"Indian Trail",
      "zip":28079
   },
   {
      "id":"tInrGCzll4k9hF34Ye1rvQ",
      "name":"Chima Steakhouse",
      "type":"Steakhouses",
      "rating":4,
      "lat":35.2263043,
      "long":-80.8439491,
      "price":"$$$",
      "address":"139 S Tryon St",
      "city":"Charlotte",
      "zip":28202
   },
   {
      "id":"b6qKEYhc5cji_i04PjF6ww",
      "name":"Ishi Japanese Restaurant",
      "type":"Japanese",
      "rating":3,
      "lat":35.2949318,
      "long":-80.7474815,
      "price":"$$",
      "address":"8205 University City Blvd",
      "city":"Charlotte",
      "zip":28262
   },
   {
      "id":"ZCXjNG1EBFiKKMtR9DOTGg",
      "name":"Thai House - University",
      "type":"Thai",
      "rating":4,
      "lat":35.3034439086914,
      "long":-80.7487182617188,
      "price":"$$",
      "address":"230 E Wt Harris Blvd",
      "city":"Charlotte",
      "zip":28262
   },
   {
      "id":"jF4TNrr03o1y6PNwC-TwFg",
      "name":"Chick-fil-A",
      "type":"Fast Food",
      "rating":2.5,
      "lat":35.144187,
      "long":-80.929394,
      "price":"$",
      "address":"8032 S Tryon St",
      "city":"Charlotte",
      "zip":28273
   },
   {
      "id":"j3SHAiF8OIlY3kUPnAAlKw",
      "name":"House Of Leng - Mallard Creek",
      "type":"Chinese",
      "rating":3.5,
      "lat":35.3403565,
      "long":-80.7656081,
      "price":"$$",
      "address":"2712 W Mallard Creek Church Rd",
      "city":"Charlotte",
      "zip":28262
   },
   {
      "id":"stCP0pdz5_3i7AAzmt5dSw",
      "name":"Wendys",
      "type":"Fast Food",
      "rating":2,
      "lat":35.3331321,
      "long":-80.7934094,
      "price":"$",
      "address":"3700 Wt Harris Blvd",
      "city":"Charlotte",
      "zip":28269
   },
   {
      "id":"KoYooLJpjWKQoHJkF3fsGA",
      "name":"Kabuto Japanese Steakhouse and Sushi Bar",
      "type":"Japanese",
      "rating":3,
      "lat":35.088184,
      "long":-80.851089,
      "price":"$$",
      "address":"7724 Pineville-Matthews Rd",
      "city":"Charlotte",
      "zip":28226
   },
   {
      "id":"aAoPO0xJsNv0hoLpjX31zg",
      "name":"Bojangles' Famous Chicken 'n Biscuits",
      "type":"Fast Food",
      "rating":2.5,
      "lat":35.188392,
      "long":-80.690711,
      "price":"$",
      "address":"9075 Lawyers Rd",
      "city":"Mint Hill",
      "zip":28227
   },
   {
      "id":"RAh9WCQAuocM7hYM5_6tnw",
      "name":"The Cowfish Sushi Burger Bar",
      "type":"Sushi Bars",
      "rating":4,
      "lat":35.1527248375554,
      "long":-80.8279533140167,
      "price":"$$",
      "address":"4310 Sharon Rd",
      "city":"Charlotte",
      "zip":28211
   },
   {
      "id":"HwV2hQr7fbpiG8wODWJQ1w",
      "name":"Azteca Mexican Restaurant",
      "type":"Mexican",
      "rating":3.5,
      "lat":35.35189,
      "long":-80.84209,
      "price":"$$",
      "address":"7340 Smith Corners Blvd",
      "city":"Charlotte",
      "zip":28269
   },
   {
      "id":"jPcGeaxe2x8-V8t7KmEmcw",
      "name":"Niyo",
      "type":"Japanese",
      "rating":2.5,
      "lat":35.333862,
      "long":-80.792175,
      "price":"$",
      "address":"3509 David Cox Rd",
      "city":"Charlotte",
      "zip":28269
   },
   {
      "id":"L8rJht4Jw_BuR8gsckEWYg",
      "name":"The Cheesecake Factory",
      "type":"American (New)",
      "rating":3,
      "lat":35.1515868304226,
      "long":-80.8305587899353,
      "price":"$$",
      "address":"4400 Sharon Rd",
      "city":"Charlotte",
      "zip":28211
   },
   {
      "id":"Mkn4eaV7pVcat5PQ0U-4Qw",
      "name":"Stacks Kitchen",
      "type":"Breakfast & Brunch",
      "rating":4,
      "lat":35.1233488121615,
      "long":-80.729626,
      "price":"$",
      "address":"11100 Monroe Rd",
      "city":"Matthews",
      "zip":28105
   },
   {
      "id":"hVLFDDA31wYm3Jjz3w74GA",
      "name":"Duckworth's Grill & Taphouse",
      "type":"American (Traditional)",
      "rating":4,
      "lat":35.05596,
      "long":-80.8535,
      "price":"$$",
      "address":"14015 Conlan Cir",
      "city":"Charlotte",
      "zip":28277
   },
   {
      "id":"vofsKB4Y8MKyytL4dS556w",
      "name":"Wingstop",
      "type":"Chicken Wings",
      "rating":2.5,
      "lat":35.3119098062957,
      "long":-80.7446102023773,
      "price":"$",
      "address":"9211 N Tryon St",
      "city":"Charlotte",
      "zip":28262
   },
   {
      "id":"XSCYYvstSpCVW8wC7rJT7w",
      "name":"Anntony's Caribbean Cafe",
      "type":"Caribbean",
      "rating":3.5,
      "lat":35.3356975,
      "long":-80.7973756,
      "price":"$",
      "address":"6434 W Sugar Creek Rd",
      "city":"Charlotte",
      "zip":28269
   },
   {
      "id":"Z_mJYg3vi8cPZHa1J4BALw",
      "name":"Kindred Restaurant",
      "type":"American (New)",
      "rating":4.5,
      "lat":35.4999098039671,
      "long":-80.848352861863,
      "price":"$$",
      "address":"131 N Main St",
      "city":"Davidson",
      "zip":28036
   },
   {
      "id":"n5Hc_iMVkyxcS0SXiBCbOQ",
      "name":"First Watch - Matthews Township",
      "type":"American (New)",
      "rating":4,
      "lat":35.12272451,
      "long":-80.71032968,
      "price":"$$",
      "address":"1643 Matthews Township Pkwy",
      "city":"Matthews",
      "zip":28105
   },
   {
      "id":"0Q5hLTlQr1HfyfLZc9Ozsw",
      "name":"Romano's Macaroni Grill",
      "type":"Italian",
      "rating":2.5,
      "lat":35.3145,
      "long":-80.76281,
      "price":"$$",
      "address":"8620 Research Dr",
      "city":"Charlotte",
      "zip":28262
   },
   {
      "id":"Q8qsbFqIE7lwA-zkv07fxA",
      "name":"Mario's Italian Restaurant",
      "type":"Italian",
      "rating":3.5,
      "lat":35.0642720418595,
      "long":-80.7268842714202,
      "price":"$$",
      "address":"2945 Matthews Weddington Rd",
      "city":"Matthews",
      "zip":28104
   },
   {
      "id":"-LAiusd8GnWFR8atxbT-Vw",
      "name":"Los Arcos Mexican Restaurant",
      "type":"Mexican",
      "rating":3,
      "lat":35.3240083,
      "long":-80.9469577,
      "price":"$$",
      "address":"3542 Mount Holly Huntersville Rd",
      "city":"Charlotte",
      "zip":28216
   },
   {
      "id":"E0vZWNBWe-LwdECQFIjnug",
      "name":"Boardwalk Billy's Raw Bar And Ribs",
      "type":"American (Traditional)",
      "rating":3.5,
      "lat":35.31062,
      "long":-80.74888,
      "price":"$$",
      "address":"9005 J M Keynes Dr",
      "city":"Charlotte",
      "zip":28262
   },
   {
      "id":"n-BoGXG2NItNbr_PMtIRBg",
      "name":"Amalfi's Pasta 'n' Pizza",
      "type":"Italian",
      "rating":3.5,
      "lat":35.2968451,
      "long":-80.7404675,
      "price":"$$",
      "address":"8542 University City Blvd",
      "city":"Charlotte",
      "zip":28213
   },
   {
      "id":"E3BTs8yFlVbZd20TknY00A",
      "name":"Jim 'N Nick's Bar-B-Q",
      "type":"Barbeque",
      "rating":4,
      "lat":35.1050414819154,
      "long":-80.9898836504819,
      "price":"$$",
      "address":"13840 Steele Creek Rd",
      "city":"Charlotte",
      "zip":28273
   },
   {
      "id":"f2sChoHFfQh3cE77hSB-ag",
      "name":"Bonefish Grill",
      "type":"Seafood",
      "rating":3.5,
      "lat":35.3722062,
      "long":-80.7215582,
      "price":"$$",
      "address":"8503 Concord Mills Blvd",
      "city":"Concord",
      "zip":28027
   },
   {
      "id":"yuhnMOLGmXHhQxyp1V_rBw",
      "name":"Genghis Grill",
      "type":"Chinese",
      "rating":3.5,
      "lat":35.13393,
      "long":-80.71156,
      "price":"$$",
      "address":"9727 East Independence Blvd",
      "city":"Matthews",
      "zip":28105
   },
   {
      "id":"_kzB_xsb9DHUPfXB0XfQGA",
      "name":"Cantina 1511",
      "type":"Tex-Mex",
      "rating":3.5,
      "lat":35.06205,
      "long":-80.81517,
      "price":"$$",
      "address":"7708 Rea Rd",
      "city":"Charlotte",
      "zip":28277
   },
   {
      "id":"-_nz_8EPGQKKTd8loQDgXQ",
      "name":"Salsarita's Fresh Mexican Grill",
      "type":"Mexican",
      "rating":3.5,
      "lat":35.3176964,
      "long":-80.7720982,
      "price":"$",
      "address":"1530 Overland Park Ln",
      "city":"Charlotte",
      "zip":28262
   },
   {
      "id":"GqfGoFMC3cn_AZI7iUOWKg",
      "name":"Bar Louie - University City",
      "type":"American (New)",
      "rating":3,
      "lat":35.3074288282892,
      "long":-80.7497937977859,
      "price":"$$",
      "address":"8760 Jm Keynes Dr",
      "city":"Charlotte",
      "zip":28262
   },
   {
      "id":"TINqpvaOjgVHiu4wgWZOhw",
      "name":"Brightstar Grill",
      "type":"American (Traditional)",
      "rating":4,
      "lat":35.2910606,
      "long":-81.0247051,
      "price":"$",
      "address":"205 Madora St",
      "city":"Mount Holly",
      "zip":28120
   },
   {
      "id":"8k8cMmMcuj5h85mMLMoj2w",
      "name":"RayNathan's",
      "type":"Barbeque",
      "rating":4,
      "lat":35.2073,
      "long":-81.07459,
      "price":"$$",
      "address":"4571 S New Hope Rd",
      "city":"Gastonia",
      "zip":28056
   },
   {
      "id":"PHhZy5zYULNF-oz-2Jz9KA",
      "name":"Mellow Mushroom",
      "type":"Pizza",
      "rating":3,
      "lat":35.053717,
      "long":-80.851277,
      "price":"$$",
      "address":"14835 Ballantyne Village Way",
      "city":"Charlotte",
      "zip":28277
   },
   {
      "id":"fECudezmkuBipHcaDhbN9Q",
      "name":"Bad Daddy's Burger Bar",
      "type":"Burgers",
      "rating":3.5,
      "lat":35.3763996,
      "long":-80.7327947,
      "price":"$$",
      "address":"8915 Christenbury Pkwy",
      "city":"Concord",
      "zip":28027
   },
   {
      "id":"2KpyT9ZN2qtj1n3TX_bzYQ",
      "name":"Char Bar No 7",
      "type":"Burgers",
      "rating":3.5,
      "lat":35.081703,
      "long":-80.729289,
      "price":"$$",
      "address":"3118 Fincher Farm Rd",
      "city":"Matthews",
      "zip":28105
   },
   {
      "id":"4X9tVVQHIewliXqaancfQA",
      "name":"Rum Bar & Grill",
      "type":"Sports Bars",
      "rating":2.5,
      "lat":35.2206969,
      "long":-80.9412414,
      "price":"$$",
      "address":"5501 Josh Birmingham Pkwy",
      "city":"Charlotte",
      "zip":28208
   },
   {
      "id":"yPIHOfXNz4LNTWFjCTFWgA",
      "name":"The Greek Grill",
      "type":"Greek",
      "rating":4.5,
      "lat":35.047322213144,
      "long":-80.9916766360402,
      "price":"$",
      "address":"1143 Stonecrest Blvd",
      "city":"Fort Mill",
      "zip":29708
   },
   {
      "id":"NRAmrbIGgXgH5uYv8GGJ5A",
      "name":"Mayworth's Public House",
      "type":"American (Traditional)",
      "rating":4.5,
      "lat":35.2358093,
      "long":-81.0724869,
      "price":"$$",
      "address":"115 Center St",
      "city":"Cramerton",
      "zip":28032
   },
   {
      "id":"YaFM08fEdbp-iSon3Opsbw",
      "name":"Monterrey Mexican Restaurant",
      "type":"Mexican",
      "rating":3.5,
      "lat":35.29419,
      "long":-80.73958,
      "price":"$$",
      "address":"1001 E Wt Harris Blvd",
      "city":"Charlotte",
      "zip":28213
   },
   {
      "id":"E0HOsxXZ_o6ocemK57BoWA",
      "name":"A Piece Of Havana",
      "type":"Cuban",
      "rating":3.5,
      "lat":35.1155967,
      "long":-80.9617231,
      "price":"$$",
      "address":"11126 S Tryon St",
      "city":"Charlotte",
      "zip":28273
   },
   {
      "id":"mLeAFPQ9fy5pYCTp0xjJkQ",
      "name":"Razzoo's Cajun Cafe",
      "type":"Cajun/Creole",
      "rating":4,
      "lat":35.3695912,
      "long":-80.716634,
      "price":"$$",
      "address":"8011 Concord Mills Blvd",
      "city":"Concord",
      "zip":28027
   },
   {
      "id":"HtObLsspK0xIXfNPb7eUmA",
      "name":"Fuji Japanese Steakhouse",
      "type":"Japanese",
      "rating":3,
      "lat":35.1029373522278,
      "long":-80.9848520092331,
      "price":"$$",
      "address":"14126 RiverGate Pkwy",
      "city":"Charlotte",
      "zip":28273
   },
   {
      "id":"WUm3b5SMYPLSgeB0adjvuA",
      "name":"Lake Wylie Pizza and Italian Resturant",
      "type":"Italian",
      "rating":3.5,
      "lat":35.1095995785586,
      "long":-81.0438186672588,
      "price":"$",
      "address":"4074 Charlotte Hwy",
      "city":"Clover",
      "zip":29710
   },
   {
      "id":"3PsmvwxetLz1Tzb-6mNhgA",
      "name":"P.F. Chang's",
      "type":"Chinese",
      "rating":3,
      "lat":35.3487926304959,
      "long":-80.853229,
      "price":"$$",
      "address":"10325 Perimeter Pkwy",
      "city":"Charlotte",
      "zip":28216
   },
   {
      "id":"hP55G7ciHn30UeoZ72Japw",
      "name":"Bisonte Pizza",
      "type":"Pizza",
      "rating":3.5,
      "lat":35.0687554401317,
      "long":-80.7011622190475,
      "price":"$$",
      "address":"1381 Chestnut Ln",
      "city":"Matthews",
      "zip":28104
   },
   {
      "id":"y8ELffgkORhv6G8oZGJwUA",
      "name":"Il Bosco Ristorante and Bar",
      "type":"Italian",
      "rating":4,
      "lat":35.50026,
      "long":-80.84908,
      "price":"$$",
      "address":"127 Depot St",
      "city":"Davidson",
      "zip":28036
   },
   {
      "id":"z2Yivr-C0K0H2sLNXvnZyg",
      "name":"Peace -N- Hominy Q",
      "type":"Barbeque",
      "rating":4.5,
      "lat":35.243,
      "long":-81.02858,
      "price":"$",
      "address":"403 E Catawba St",
      "city":"Belmont",
      "zip":28012
   },
   {
      "id":"xjUy3O9sVz8qFxBS8CWStw",
      "name":"Slice House Pizza",
      "type":"Pizza",
      "rating":4,
      "lat":35.410704,
      "long":-80.842643,
      "price":"$$",
      "address":"101 Old Statesville Rd",
      "city":"Huntersville",
      "zip":28078
   },
   {
      "id":"uqYB53z5GrtzJq8WHTF-xg",
      "name":"Olive Garden Italian Restaurant",
      "type":"Italian",
      "rating":3,
      "lat":35.0864105,
      "long":-80.8770523,
      "price":"$$",
      "address":"9421 Pineville Matthews Rd",
      "city":"Pineville",
      "zip":28134
   },
   {
      "id":"IIWz96zl3D8thYIxv3-5mA",
      "name":"Asian Garden",
      "type":"Asian Fusion",
      "rating":3.5,
      "lat":35.2490132159853,
      "long":-81.0806029917451,
      "price":"$",
      "address":"202 Market St",
      "city":"Cramerton",
      "zip":28032
   },
   {
      "id":"YZhqXSLLrDtRjnt5XzQGXQ",
      "name":"Luigi & Sons Italian Restaurant",
      "type":"Italian",
      "rating":4,
      "lat":34.970281,
      "long":-80.994718,
      "price":"$$",
      "address":"2387 Cherry Rd",
      "city":"Rock Hill",
      "zip":29732
   },
   {
      "id":"FK1YPTL4TccEXcHcPt9dJg",
      "name":"The Improper Pig",
      "type":"Barbeque",
      "rating":4,
      "lat":35.0076885764977,
      "long":-80.9441116790801,
      "price":"$$",
      "address":"204 Main St",
      "city":"Fort Mill",
      "zip":29715
   },
   {
      "id":"AB1a6QImpe88asJrE3lxpQ",
      "name":"Brixx Wood Fired Pizza",
      "type":"Pizza",
      "rating":3.5,
      "lat":35.02608,
      "long":-80.962041,
      "price":"$$",
      "address":"2035 Richard Jones Rd",
      "city":"Nashville",
      "zip":37215
   },
   {
      "id":"3cwcUx6OPOw0OkJcHwbWFw",
      "name":"Clover Station",
      "type":"Southern",
      "rating":4.5,
      "lat":35.1115072,
      "long":-81.2265532,
      "price":"$",
      "address":"105 N Main St",
      "city":"Clover",
      "zip":29710
   },
   {
      "id":"Zn1XufFEiIGLu7-4x4jesg",
      "name":"Panera Bread",
      "type":"Sandwiches",
      "rating":2.5,
      "lat":35.123889,
      "long":-80.707596,
      "price":"$",
      "address":"1904 Matthews Township Pkwy",
      "city":"Matthews",
      "zip":28105
   },
   {
      "id":"WyKJkdw7PEZD1I0qtPN17w",
      "name":"Bistro D'antonio",
      "type":"Italian",
      "rating":4,
      "lat":34.93782,
      "long":-80.75047,
      "price":"$$",
      "address":"3909 Providence Rd S",
      "city":"Waxhaw",
      "zip":28173
   },
   {
      "id":"eJ0kWgojWvS1IunOpzyfWg",
      "name":"Brew's Tavern",
      "type":"American (Traditional)",
      "rating":4,
      "lat":34.947345,
      "long":-80.844563,
      "price":"$$",
      "address":"8083 Charlotte Hwy",
      "city":"Fort Mill",
      "zip":29707
   },
   {
      "id":"aJPDsouSpAnaksj8uFHzdQ",
      "name":"Sake Express",
      "type":"Japanese",
      "rating":3.5,
      "lat":35.25424,
      "long":-81.02775,
      "price":"$",
      "address":"675 Park St",
      "city":"Belmont",
      "zip":28012
   },
   {
      "id":"jzJnN9T0BKZLO2YY3ihBew",
      "name":"Farley's Pizzeria",
      "type":"Pizza",
      "rating":4,
      "lat":34.9383594,
      "long":-80.6689706,
      "price":"$",
      "address":"3202 Potter Rd",
      "city":"Mineral Springs",
      "zip":28112
   },
   {
      "id":"ZdFl7MqnF09dcifG1j7l_w",
      "name":"Applebee's Grill + Bar",
      "type":"American (Traditional)",
      "rating":1.5,
      "lat":35.310994,
      "long":-80.752343,
      "price":"$$",
      "address":"8700 J W Clay",
      "city":"Charlotte",
      "zip":28262
   },
   {
      "id":"UM07j7HtW-dhr8Gq3LQLxg",
      "name":"521 BBQ & Grill",
      "type":"Barbeque",
      "rating":4,
      "lat":35.047746,
      "long":-80.992075,
      "price":"$$",
      "address":"1135 Stonecrest Blvd",
      "city":"Tega Cay",
      "zip":29708
   },
   {
      "id":"Aw3YYxmIbt-LTtjrNWouHA",
      "name":"Dressler's Restaurant - Birkdale Village",
      "type":"American (New)",
      "rating":4,
      "lat":35.446135,
      "long":-80.879821,
      "price":"$$$",
      "address":"8630 1-A Lindholm Dr",
      "city":"Huntersville",
      "zip":28078
   },
   {
      "id":"VIfREGnBYJ6HVnWfArVb_A",
      "name":"The Country Kitchen",
      "type":"Southern",
      "rating":4,
      "lat":35.3156475,
      "long":-81.1748462,
      "price":"$",
      "address":"116 E Main St",
      "city":"Dallas",
      "zip":28034
   },
   {
      "id":"1ddi7j3nph9tuU3J3TK6LA",
      "name":"Cheddar's Scratch Kitchen",
      "type":"Comfort Food",
      "rating":3,
      "lat":35.2609158768158,
      "long":-81.1424550270772,
      "price":"$$",
      "address":"2051 E Franklin Blvd",
      "city":"Gastonia",
      "zip":28054
   },
   {
      "id":"3GGmY_QhqHnIEqk62p7cVA",
      "name":"Hwy 55 Burgers Shakes & Fries",
      "type":"Burgers",
      "rating":3.5,
      "lat":35.3219184510796,
      "long":-80.6490468978882,
      "price":"$",
      "address":"4435 Hwy 49 S",
      "city":"Harrisburg",
      "zip":28075
   },
   {
      "id":"JXj3X8RMmVikVZGSWmh7ww",
      "name":"Block Bistro",
      "type":"Wine Bars",
      "rating":4,
      "lat":35.41326,
      "long":-80.83381,
      "price":"$$",
      "address":"13812 Cinnabar Pl",
      "city":"Huntersville",
      "zip":28078
   },
   {
      "id":"faYjK7VoSnPkZiA4Qjyu_w",
      "name":"Pier 51 Seafood Restaurant",
      "type":"Seafood",
      "rating":4,
      "lat":35.3972525154516,
      "long":-80.6091291683481,
      "price":"$$",
      "address":"744 Cabarrus Ave W",
      "city":"Concord",
      "zip":28027
   },
   {
      "id":"pa2Y633N7lG7SHCIriE8GQ",
      "name":"Carrabba's Italian Grill",
      "type":"Italian",
      "rating":3.5,
      "lat":35.3656707,
      "long":-80.715237,
      "price":"$$",
      "address":"7900 Lyles Ln NW",
      "city":"Concord",
      "zip":28027
   },
   {
      "id":"u5wmbtWjMyaiJpAbP2xoEw",
      "name":"Fish Market",
      "type":"Seafood",
      "rating":3.5,
      "lat":35.02798,
      "long":-80.96897,
      "price":"$$",
      "address":"990 Market St",
      "city":"Fort Mill",
      "zip":29708
   },
   {
      "id":"YvVEZIfkxRktT07IBpXilw",
      "name":"Hilton Garden Inn Charlotte/Concord",
      "type":"Hotels",
      "rating":4,
      "lat":35.3705503291484,
      "long":-80.7097738981281,
      "price":"$$",
      "address":"7831 Gateway Ln",
      "city":"Concord",
      "zip":28027
   },
   {
      "id":"XSY26vVt9qvLh3SAECPzkg",
      "name":"The Melting Pot - Huntersville",
      "type":"Fondue",
      "rating":4.5,
      "lat":35.441214,
      "long":-80.86721,
      "price":"$$$",
      "address":"16625 Statesville Rd",
      "city":"Huntersville",
      "zip":28078
   },
   {
      "id":"hR4-JdUZI63bv5pa_LIUOw",
      "name":"Fiesta Mexicana Grill",
      "type":"Mexican",
      "rating":4.5,
      "lat":35.42822,
      "long":-80.6084599,
      "price":"$",
      "address":"836 Florence St",
      "city":"Concord",
      "zip":28027
   },
   {
      "id":"cr84hpeFeas6N6VGV7Iu3A",
      "name":"Que Onda Cantina Highland Creek",
      "type":"Mexican",
      "rating":4,
      "lat":35.384405,
      "long":-80.7864813,
      "price":"$$",
      "address":"13016 Eastfield Rd",
      "city":"Huntersville",
      "zip":28078
   },
   {
      "id":"WcJj-qBxuGncY1X8R6pfgg",
      "name":"Famous Toastery",
      "type":"Breakfast & Brunch",
      "rating":4,
      "lat":35.374985,
      "long":-80.729037,
      "price":"$$",
      "address":"8680 Concord Mills Blvd",
      "city":"Concord",
      "zip":28027
   },
   {
      "id":"izNFwY0XMPsmmUDaSzB9ig",
      "name":"Sabor Latin Street Grill - Fort Mill/Tega Cay",
      "type":"Latin American",
      "rating":3.5,
      "lat":35.0591982376896,
      "long":-80.990301668644,
      "price":"$",
      "address":"817 Crossroads Plz",
      "city":"Fort Mill",
      "zip":29708
   },
   {
      "id":"2aLZjt3Pkg7WvoJq2LtckA",
      "name":"Hillbilly's Barbeque & Steaks",
      "type":"Barbeque",
      "rating":3.5,
      "lat":35.263714,
      "long":-81.091149,
      "price":"$$",
      "address":"720 McAdenville Rd",
      "city":"Lowell",
      "zip":28098
   },
   {
      "id":"a5zjODIOCqRAH5mG4sPVYQ",
      "name":"Cherry",
      "type":"Sushi Bars",
      "rating":3.5,
      "lat":35.1083029,
      "long":-81.0425683,
      "price":"$$",
      "address":"4034 Charlotte Hwy",
      "city":"Lake Wylie",
      "zip":29710
   },
   {
      "id":"DtU7Jq2YEaxZitAotT95yQ",
      "name":"Taqueria La Unica",
      "type":"Mexican",
      "rating":4,
      "lat":34.986572265625,
      "long":-80.5254669189453,
      "price":"$",
      "address":"1621 Walkup Ave",
      "city":"Monroe",
      "zip":28110
   },
   {
      "id":"syBbYNE5-rWDMOs-MkFRQw",
      "name":"Emmet's Social Table",
      "type":"American (Traditional)",
      "rating":4,
      "lat":34.92455,
      "long":-80.73976,
      "price":"$$",
      "address":"401 E South Main St",
      "city":"Waxhaw",
      "zip":28173
   },
   {
      "id":"-Yz1ZN-mSFQ7isNOz99MZQ",
      "name":"Jimmy John's",
      "type":"Sandwiches",
      "rating":3.5,
      "lat":35.431844,
      "long":-80.606222,
      "price":"$",
      "address":"1225 Concord Pkwy",
      "city":"Concord",
      "zip":28025
   },
   {
      "id":"bGaMzx2PcwzhYBX9Gn7_hg",
      "name":"El Vallarta",
      "type":"Mexican",
      "rating":4,
      "lat":35.00283,
      "long":-80.5531,
      "price":"$$",
      "address":"1890 W Roosevelt Blvd",
      "city":"Monroe",
      "zip":28110
   },
   {
      "id":"owjS04hpDA-XExecvsU0OQ",
      "name":"Famous Toastery",
      "type":"Breakfast & Brunch",
      "rating":4,
      "lat":35.0471911350329,
      "long":-80.9908684123125,
      "price":"$$",
      "address":"2429 Hwy 160 W",
      "city":"Tega Cay",
      "zip":29708
   },
   {
      "id":"-plmjUoC1d-tZcVbp0zMqw",
      "name":"Hickory Tavern",
      "type":"Sports Bars",
      "rating":3,
      "lat":34.954750333773,
      "long":-80.851105414331,
      "price":"$$",
      "address":"8364 Charlotte Hwy",
      "city":"Indian Land",
      "zip":29707
   },
   {
      "id":"8kKTZ0TzLpuPbk8eNGBEGA",
      "name":"LongHorn Steakhouse",
      "type":"Steakhouses",
      "rating":4,
      "lat":35.44676,
      "long":-80.59918,
      "price":"$$",
      "address":"351 Copperfield Blvd NE",
      "city":"Concord",
      "zip":28025
   },
   {
      "id":"t59EjJ_flqR75Mk2RWILAg",
      "name":"Fratelli Ristorante & Pizzeria",
      "type":"Italian",
      "rating":3,
      "lat":35.02762,
      "long":-80.96798,
      "price":"$$",
      "address":"975 Market St",
      "city":"Fort Mill",
      "zip":29708
   },
   {
      "id":"TDFNuRJ_45hW18mu-V12JQ",
      "name":"El Amigo Mexican Restaurant",
      "type":"Mexican",
      "rating":4,
      "lat":35.46982,
      "long":-80.6112799,
      "price":"$$",
      "address":"1776 S Cannon Blvd",
      "city":"Kannapolis",
      "zip":28083
   },
   {
      "id":"EAt4rIjErbsz97lh7f0r_Q",
      "name":"The Full Moon Oyster Bar-Concord",
      "type":"Bars",
      "rating":4,
      "lat":35.3971576,
      "long":-80.6621702,
      "price":"$$",
      "address":"5011 Weddington Rd",
      "city":"Concord",
      "zip":28027
   },
   {
      "id":"Mmh4w2g2bSAkdSAFd_MH_g",
      "name":"Red Bowl",
      "type":"Asian Fusion",
      "rating":3,
      "lat":35.062479508989,
      "long":-80.9944802178604,
      "price":"$$",
      "address":"845 Stockbridge Dr",
      "city":"Fort Mill",
      "zip":29708
   },
   {
      "id":"LXKGsFBsOYaS7VPuMlgONA",
      "name":"Great Harvest Bread",
      "type":"Bakeries",
      "rating":3.5,
      "lat":35.48007,
      "long":-80.85837,
      "price":"$$",
      "address":"19901 S Main St",
      "city":"Cornelius",
      "zip":28031
   },
   {
      "id":"AOfdk12tqKEcXZBQ0HvG_Q",
      "name":"Hooters",
      "type":"American (Traditional)",
      "rating":3,
      "lat":35.3650342173922,
      "long":-80.7069477257776,
      "price":"$$",
      "address":"7702 Gateway Ln",
      "city":"Concord",
      "zip":28027
   },
   {
      "id":"foezb6XCQ2_bWLd2M5LICA",
      "name":"Sauza's Mexican Restaurant",
      "type":"Mexican",
      "rating":3.5,
      "lat":35.4438972,
      "long":-80.9970703,
      "price":"$",
      "address":"169 Cross Center Rd",
      "city":"Denver",
      "zip":28037
   },
   {
      "id":"8hkRhWdnSWQswxHHQb5x9g",
      "name":"The Grumpy Monk",
      "type":"American (New)",
      "rating":3.5,
      "lat":35.0201278,
      "long":-80.5787262,
      "price":"$$",
      "address":"2841 W Hwy 74",
      "city":"Monroe",
      "zip":28110
   },
   {
      "id":"8xRBpeEcnLSIRaqYbF-JWg",
      "name":"IHOP",
      "type":"Breakfast & Brunch",
      "rating":1.5,
      "lat":35.371058,
      "long":-80.78341,
      "price":"$$",
      "address":"5815 Highland Shoppes Dr",
      "city":"Charlotte",
      "zip":28269
   },
   {
      "id":"_tU5cWajktsl8_Uj1_DaHA",
      "name":"Grumpy Brothers",
      "type":"Southern",
      "rating":4,
      "lat":34.9583470323975,
      "long":-81.0433530807495,
      "price":"$$",
      "address":"295 Herlong Ave",
      "city":"Rock Hill",
      "zip":29732
   },
   {
      "id":"97K4904NnvB_zSEVGHDc-A",
      "name":"E Noodles",
      "type":"Noodles",
      "rating":4,
      "lat":35.4156265258789,
      "long":-80.6689987182617,
      "price":"$$",
      "address":"360 Exchange St NW",
      "city":"Concord",
      "zip":28027
   },
   {
      "id":"v8RKZS-7rhZd3yxU3nqygA",
      "name":"Pita Pit",
      "type":"Fast Food",
      "rating":3.5,
      "lat":35.4814588597001,
      "long":-80.8554607695587,
      "price":"$",
      "address":"21726 Catawba Ave",
      "city":"Cornelius",
      "zip":28031
   },
   {
      "id":"z6yxgJ8UW0UF7dJr65rC4w",
      "name":"Nellie's Southern Kitchen",
      "type":"Southern",
      "rating":3.5,
      "lat":35.24355,
      "long":-81.0374,
      "price":"$$",
      "address":"36 N Main St",
      "city":"Belmont",
      "zip":28012
   },
   {
      "id":"clMgOc_GMWj8Y2c1AS7NqQ",
      "name":"LongHorn Steakhouse",
      "type":"Steakhouses",
      "rating":3.5,
      "lat":34.939542,
      "long":-80.966651,
      "price":"$$",
      "address":"2255 Crosspointe Dr",
      "city":"Rock Hill",
      "zip":29730
   },
   {
      "id":"q5I1eO_K6AHC-3B8DB9Caw",
      "name":"Choplin's Restaurant",
      "type":"Seafood",
      "rating":4,
      "lat":35.480913,
      "long":-80.882426,
      "price":"$$",
      "address":"19700 One Norman Blvd",
      "city":"Cornelius",
      "zip":28031
   },
   {
      "id":"OBX7JI5q8PMJ6ege9gji0Q",
      "name":"Quality Inn & Suites Matthews - Charlotte",
      "type":"Hotels",
      "rating":2.5,
      "lat":35.099017,
      "long":-80.678186,
      "price":"$$",
      "address":"13470 East Independence Blvd",
      "city":"Matthews",
      "zip":28105
   },
   {
      "id":"XTQWdGUh1Xtlk7e9kxBMwg",
      "name":"Penn Station East Coast Subs",
      "type":"Cheesesteaks",
      "rating":3,
      "lat":35.47402,
      "long":-80.89101,
      "price":"$",
      "address":"19116 W Catawba Ave",
      "city":"Cornelius",
      "zip":28031
   },
   {
      "id":"Pcij9Zvllmj-oge8N-uSzg",
      "name":"The Woodshed Restaurant",
      "type":"Steakhouses",
      "rating":3,
      "lat":35.358043,
      "long":-81.095126,
      "price":"$$",
      "address":"210 S Main St",
      "city":"Stanley",
      "zip":28164
   },
   {
      "id":"Km0sT7E_dc2U1BkyRoy1xA",
      "name":"Akahana - Asian Bistro, Bar & Sushi",
      "type":"Japanese",
      "rating":3,
      "lat":35.0284830827773,
      "long":-80.9673952683806,
      "price":"$$",
      "address":"940 Market St",
      "city":"Fort Mill",
      "zip":29708
   },
   {
      "id":"7hsi2ob7wOORBj5Pa2199Q",
      "name":"Outback Steakhouse",
      "type":"Steakhouses",
      "rating":3,
      "lat":35.43966,
      "long":-80.87063,
      "price":"$$",
      "address":"16400 Northcross Dr",
      "city":"Huntersville",
      "zip":28078
   },
   {
      "id":"Hx6HNJfEGgllQ3-dyoNDbA",
      "name":"Twin Peaks",
      "type":"Sports Bars",
      "rating":3,
      "lat":35.3733749389648,
      "long":-80.7259368896484,
      "price":"$$",
      "address":"8601 Concord Mills Blvd",
      "city":"Concord",
      "zip":28027
   },
   {
      "id":"ff58ZoL3giN5WBftvH5Icg",
      "name":"What-A-Burger No 13",
      "type":"Burgers",
      "rating":3.5,
      "lat":35.39941,
      "long":-80.43681,
      "price":"$",
      "address":"8330 W Franklin St",
      "city":"Mount Pleasant",
      "zip":28124
   },
   {
      "id":"c3MRaD-kBCpOvtv4lnUecw",
      "name":"Cowboy Steak Chicken Ribs",
      "type":"Steakhouses",
      "rating":3.5,
      "lat":35.4586799,
      "long":-80.8670377,
      "price":"$$",
      "address":"9615 Bailey Rd",
      "city":"Cornelius",
      "zip":28031
   },
   {
      "id":"61RkFFofkljVlu2mv1TS6A",
      "name":"Iron Thunder",
      "type":"Sports Bars",
      "rating":3,
      "lat":34.9897767818812,
      "long":-80.5316836642037,
      "price":"$$",
      "address":"608 West Roosevelt Blvd",
      "city":"Monroe",
      "zip":28110
   },
   {
      "id":"VkPa6mYsHsiPPU6BQ3l4fQ",
      "name":"Giovanni's Pizza & Pasta",
      "type":"Pizza",
      "rating":3,
      "lat":35.4440872371197,
      "long":-80.6250639259815,
      "price":"$$",
      "address":"559 Winecoff School Rd",
      "city":"Concord",
      "zip":28027
   },
   {
      "id":"rmP7AzV3SAeRWUzbNuqQ5A",
      "name":"131 MAIN",
      "type":"American (Traditional)",
      "rating":4,
      "lat":35.4570629,
      "long":-80.8679784,
      "price":"$$$",
      "address":"17830 Statesville Rd",
      "city":"Cornelius",
      "zip":28031
   },
   {
      "id":"yUSPsKDzmlG9XYWfgblL_g",
      "name":"Empire Pizza & Bar",
      "type":"Pizza",
      "rating":3.5,
      "lat":34.979621,
      "long":-81.08731,
      "price":"$$",
      "address":"4811 Old York Rd",
      "city":"Rock Hill",
      "zip":29732
   },
   {
      "id":"fJqY-E3adwx7LLozV1TfFA",
      "name":"eeZ Fusion & Sushi",
      "type":"Sushi Bars",
      "rating":4,
      "lat":35.4464951042805,
      "long":-80.8783882297915,
      "price":"$$",
      "address":"16925 Birkdale Commons Pkwy",
      "city":"Huntersville",
      "zip":28078
   },
   {
      "id":"F1CCt2Gl6qpOB73mXi5anA",
      "name":"Duckworths Grill & Taphouse",
      "type":"Sports Bars",
      "rating":4,
      "lat":35.440001,
      "long":-80.867257,
      "price":"$$",
      "address":"16609 Statesville Rd",
      "city":"Huntersville",
      "zip":28078
   },
   {
      "id":"tI81vezqt-Mi8nsEBpfqbA",
      "name":"Outback Steakhouse",
      "type":"Steakhouses",
      "rating":3,
      "lat":34.977484,
      "long":-80.989951,
      "price":"$$",
      "address":"1319 River Run Ct",
      "city":"Rock Hill",
      "zip":29732
   },
   {
      "id":"yOvsX8P8xRZwaAEaXtmoIA",
      "name":"Ledo Pizza",
      "type":"Pizza",
      "rating":3,
      "lat":34.9538286,
      "long":-81.059388,
      "price":"$$",
      "address":"489 S Herlong Ave",
      "city":"Rock Hill",
      "zip":29732
   },
   {
      "id":"xswOBJzAg4MtfDjbYWjx1A",
      "name":"East Coast Wings + Grill",
      "type":"Chicken Wings",
      "rating":3.5,
      "lat":35.46461,
      "long":-80.59189,
      "price":"$$",
      "address":"2263 Spider Dr",
      "city":"Kannapolis",
      "zip":28083
   },
   {
      "id":"acv_0ipmJF3iUH0f9d5A0Q",
      "name":"Red Bowl Asian Bistro",
      "type":"Asian Fusion",
      "rating":3,
      "lat":34.97673,
      "long":-81.02879,
      "price":"$$",
      "address":"2760 Celanese Rd",
      "city":"Rock Hill",
      "zip":29732
   },
   {
      "id":"Oe1tY0tjUgPJ_LiczZDMPQ",
      "name":"Ruby Tuesday",
      "type":"Burgers",
      "rating":3,
      "lat":34.93908,
      "long":-80.96796,
      "price":"$$",
      "address":"1410 Old Springdale Rd",
      "city":"Rock Hill",
      "zip":29730
   },
   {
      "id":"dwAPMrdLwSn1KCsJzz_oLA",
      "name":"Hickory Tavern",
      "type":"American (Traditional)",
      "rating":2.5,
      "lat":35.22596,
      "long":-81.13371,
      "price":"$$",
      "address":"1925 Hoffman Rd",
      "city":"Gastonia",
      "zip":28054
   },
   {
      "id":"7R6JSHz-7jc9CzhPKdOE4Q",
      "name":"Kobe Hero",
      "type":"Japanese",
      "rating":3,
      "lat":35.478015,
      "long":-80.876564,
      "price":"$$",
      "address":"20465 Chartwell Ctr Dr",
      "city":"Cornelius",
      "zip":28031
   },
   {
      "id":"vfwTrfrZ3FWhVkyLjAggLQ",
      "name":"Restaurant X",
      "type":"Breakfast & Brunch",
      "rating":4,
      "lat":35.49612,
      "long":-80.85303,
      "price":"$$",
      "address":"408 S Main St",
      "city":"Davidson",
      "zip":28036
   },
   {
      "id":"UXL5eg0e6W1AZzmX6NAXdg",
      "name":"Brickhouse Tavern",
      "type":"American (Traditional)",
      "rating":3.5,
      "lat":35.5035552978516,
      "long":-80.8488616943359,
      "price":"$$",
      "address":"209 Delburg St",
      "city":"Davidson",
      "zip":28036
   },
   {
      "id":"XBYrsKCn0fAgUO2AD7Lizg",
      "name":"Chili's",
      "type":"Bars",
      "rating":2.5,
      "lat":35.25938,
      "long":-81.12409,
      "price":"$$",
      "address":"3086 E Franklin Blvd",
      "city":"Gastonia",
      "zip":28056
   },
   {
      "id":"DrJ6xjGcQJfMllS19S527Q",
      "name":"Alton's Kitchen & Cocktails",
      "type":"American (New)",
      "rating":3.5,
      "lat":35.479225,
      "long":-80.893923,
      "price":"$$",
      "address":"19918 N Cove Rd",
      "city":"Cornelius",
      "zip":28031
   },
   {
      "id":"km9M8hXG88RzPUBOeYTbvg",
      "name":"Quality Inn & Suites",
      "type":"Hotels",
      "rating":2.5,
      "lat":35.009762,
      "long":-80.564526,
      "price":"$$",
      "address":"2351 W Roosevelt Blvd",
      "city":"Monroe",
      "zip":28110
   },
   {
      "id":"BDTIaZHqgBbV1aqlh1l_Vg",
      "name":"Buffalo Wild Wings",
      "type":"Chicken Wings",
      "rating":2,
      "lat":35.0046926332597,
      "long":-80.5571873386429,
      "price":"$$",
      "address":"2109 W Rossevelt Blvd",
      "city":"Monroe",
      "zip":28110
   },
   {
      "id":"1hBmklxIBhw9nu9NjOTaQA",
      "name":"Hello, Sailor",
      "type":"Seafood",
      "rating":3,
      "lat":35.4859323089312,
      "long":-80.8877044478741,
      "price":"$$",
      "address":"20210 Henderson Rd",
      "city":"Cornelius",
      "zip":28031
   },
   {
      "id":"I3fwKsQfZA_zMjewRr9lrw",
      "name":"Dairy Queen",
      "type":"Ice Cream & Frozen Yogurt",
      "rating":1.5,
      "lat":35.2121086,
      "long":-81.1650085,
      "price":"$",
      "address":"3128 Union Rd",
      "city":"Gastonia",
      "zip":28056
   }
]